Continent,Ctry,Ctry_iso3,Locode,Name,Name_wo_diac,Outflows,Longitude,Latitude,Status,Function,geometry
EU,Germany,DEU,DEBKE,Brake,Brake,27774.0,8.483333333300001,53.3333333333,AF,123-----,Point (8.4833333333333325 53.3333333333333357)
EU,Germany,DEU,DECUX,Cuxhaven,Cuxhaven,128258.0,8.7,53.8833333333,AF,123-----,Point (8.69999999999999929 53.88333333333333286)
EU,Germany,DEU,DEEME,Emden,Emden,14598.0,7.216666666699999,53.3666666667,AF,1234----,Point (7.21666666666666679 53.36666666666666714)
EU,Spain,ESP,ESCAR,Cartagena,Cartagena,161718.0,-0.9833333333,37.6,AA,123-----,Point (-0.98333333333333295 37.60000000000000142)
EU,Spain,ESP,ESCAS,Castell?n de la Plana,Castellon_de_la_plana,2188540.79158,-0.033333333300000004,39.9833333333,AI,123-----,Point (-0.033333333333333 39.98333333333333428)
EU,Spain,ESP,ESFRO,Ferrol,Ferrol,165064.5,-8.25,43.4833333333,AI,123-----,Point (-8.25 43.48333333333333428)
EU,Spain,ESP,ESGIJ,Gij?n,Gijon,356746.0,-5.666666666699999,43.5333333333,AI,1234----,Point (-5.66666666666666696 43.53333333333333144)
AF,Egypt,EGY,EGSOK,Sokhna Port,Sokhna_port,3639356.73184,32.35,29.65,RQ,1-------,Point (32.35000000000000142 29.64999999999999858)
AF,Eritrea,ERI,ERMSW,Massawa (Mitsiwa),Massawa_mitsiwa,44242.0,39.45,15.6,AI,1234----,Point (39.45000000000000284 15.59999999999999964)
EU,Spain,ESP,ESLEI,Almer?a,Almeria,123708.0,-2.45,36.8333333333,AI,1234----,Point (-2.45000000000000018 36.8333333333333357)
EU,Spain,ESP,ESBIO,Bilbao,Bilbao,757628.799992,-2.9666666667,43.25,AI,12345---,Point (-2.96666666666666679 43.25)
EU,Estonia,EST,EEPLA,Paldiski,Paldiski,90009.0,24.05,59.35,AA,-23----B,Point (24.05000000000000071 59.35000000000000142)
EU,Estonia,EST,EETLL,Tallinn,Tallinn,493596.99998,24.7333333333,59.4333333333,AI,1--45---,Point (24.73333333333333428 59.43333333333333002)
AF,Egypt,EGY,EGDAM,Dumyat (Damietta),Dumyat_damietta,9993066.85001,31.8166666667,31.4166666667,RL,1234----,Point (31.81666666666666643 31.41666666666666785)
AF,Egypt,EGY,EGALY,El Iskandariya (Alexandria),El_iskandariya_alexandria,6389301.299790001,29.9166666667,31.1833333333,AI,1--45---,Point (29.91666666666666785 31.18333333333333357)
SA,Ecuador,ECU,ECPSJ,Posorja,Posorja,1776250.6668,-80.25,-2.7,RL,--3--6--,Point (-80.25 -2.70000000000000018)
SA,Ecuador,ECU,ECPBO,Puerto Bol?var,Puerto_bolivar,1601516.8,-79.9833333333,-3.2666666667000004,AI,1-------,Point (-79.98333333333333428 -3.26666666666666705)
EU,Estonia,EST,EEKND,Kunda,Kunda,4176.0,26.5333333333,59.5166666667,AA,1------B,Point (26.53333333333333499 59.51666666666666572)
EU,Estonia,EST,EEMUG,Muuga,Muuga,74880.0,24.9666666667,59.5,AA,1------B,Point (24.96666666666666501 59.5)
AS,China,CHN,CNSHD,Shidao Pt,Shidao_pt,54886.0,122.4333333333,36.8666666667,AS,1-------,Point (122.43333333333333712 36.86666666666666714)
AS,China,CHN,CNWIH,Waihai,Waihai,50050.0,113.1333333333,22.5833333333,AS,1-------,Point (113.13333333333333997 22.58333333333333215)
AS,China,CHN,CNWEF,Weifang Pt,Weifang_pt,65923.0,119.1,36.7166666667,AS,1--4----,Point (119.09999999999999432 36.71666666666666856)
AS,China,CHN,CNWEI,Weihai,Weihai,238257.5,122.1166666667,37.5166666667,AS,1--45---,Point (122.11666666666666003 37.51666666666666572)
AS,China,CHN,CNSHP,Qinhuangdao Pt,Qinhuangdao_pt,105300.0,119.5833333333,39.9166666667,AS,1-------,Point (119.5833333333333286 39.9166666666666643)
AS,China,CHN,CNQZJ,Quanzhou Pt,Quanzhou_pt,512451.33335,118.6,24.9333333333,AS,1-------,Point (118.59999999999999432 24.93333333333333357)
AS,China,CHN,CNRZH,Rizhao Pt,Rizhao_pt,1075073.00003,119.53333333329999,35.3833333333,AS,1-------,Point (119.53333333333333144 35.38333333333333286)
AS,China,CHN,CNSHK,Shekou Pt,Shekou_pt,74635666.14055,113.9166666667,22.4833333333,AS,1-------,Point (113.9166666666666714 22.48333333333333428)
AS,China,CHN,CNJNZ,Jinzhou Pt,Jinzhou_pt,684866.0,121.15,41.1166666667,AS,1-------,Point (121.15000000000000568 41.11666666666666714)
AS,China,CHN,CNLYG,Lianyungang,Lianyungang,9288988.80945,119.4333333333,34.7166666667,AS,1-------,Point (119.43333333333333712 34.71666666666666856)
AS,China,CHN,CNNSA,Nansha Pt,Nansha_pt,42484636.038413,113.5833333333,22.75,AS,1-------,Point (113.5833333333333286 22.75)
AS,China,CHN,CNNTG,Nantong Pt,Nantong_pt,261618.5,120.85,32.0166666667,AS,1-------,Point (120.84999999999999432 32.01666666666666572)
AS,China,CHN,CNFQG,Fuqing,Fuqing,1164780.9333600001,119.3666666667,25.7166666667,RL,--3-----,Point (119.36666666666666003 25.71666666666666501)
AS,China,CHN,CNHUI,Huizhou Pt,Huizhou_pt,27300.0,114.3666666667,23.0833333333,AS,1-------,Point (114.36666666666666003 23.08333333333333215)
AS,China,CHN,CNHMN,Humen Pt,Humen_pt,630027.5,113.6666666667,22.8333333333,AS,1-------,Point (113.6666666666666714 22.83333333333333215)
AS,China,CHN,CNJGY,Jiangyin,Jiangyin,594906.0,119.3,25.4666666667,RL,1-3-----,Point (119.29999999999999716 25.46666666666666501)
,Cuba,CUB,CUMAR,Mariel,Mariel,370296.8,-82.75,23.0,RL,1234----,Point (-82.75 23)
AF,Cabo Verde,CPV,CVMIN,Mindelo,Mindelo,114309.0,-25.0,16.883333333299998,RL,1-3-----,Point (-25 16.88333333333333286)
,Cura?ao,CUW,CWWIL,Willemstad,Willemstad,721990.3,-68.9166666667,12.1,AI,1-------,Point (-68.9166666666666714 12.09999999999999964)
AS,Christmas Island,CXR,CXFFC,Flying Fish Cove,Flying_fish_cove,2520.0,105.71666666670001,-10.4166666667,RL,1-------,Point (105.71666666666666856 -10.41666666666666607)
SA,Colombia,COL,COTRB,Turbo,Turbo,799731.4000149999,-76.71666666670001,8.0833333333,AI,1--4----,Point (-76.71666666666666856 8.08333333333333393)
,Costa Rica,CRI,CRCAL,Caldera,Caldera,704191.8,-84.71666666670001,9.95,RL,123-----,Point (-84.71666666666666856 9.94999999999999929)
,Costa Rica,CRI,CRMOB,Mo?n,Moin,2884497.416525,-83.0833333333,10.0,RL,1-3-----,Point (-83.0833333333333286 10)
,Costa Rica,CRI,CRLIO,Puerto Lim?n,Puerto_limon,2372283.33343,-83.03333333329999,10.0,AI,1-3-----,Point (-83.03333333333333144 10)
AS,China,CHN,CNZZU,Zhangzhou Pt,Zhangzhou_pt,340964.0,117.65,24.5166666667,AS,1-------,Point (117.65000000000000568 24.51666666666666572)
AS,China,CHN,CNZUH,Zhuhai Pt,Zhuhai_pt,929467.5,113.5666666667,22.2833333333,AS,1-------,Point (113.56666666666666288 22.28333333333333499)
SA,Colombia,COL,COLET,Leticia,Leticia,9675.0,-69.9333333333,-4.2166666667,AI,1--4----,Point (-69.93333333333333712 -4.21666666666666679)
SA,Colombia,COL,COTLU,Tol?,Tolu,9675.0,-75.5833333333,9.5333333333,AI,1--4----,Point (-75.5833333333333286 9.53333333333333321)
AS,China,CHN,CNYPG,Yangpu Pt,Yangpu_pt,872543.16658,109.2,19.7,AS,1-------,Point (109.20000000000000284 19.69999999999999929)
AS,China,CHN,CNYTN,Yantian Pt,Yantian_pt,74187678.53746,119.8666666667,26.85,AS,1-------,Point (119.86666666666666003 26.85000000000000142)
AS,China,CHN,CNYIK,Yingkou Pt,Yingkou_pt,1421671.0,122.21666666670001,40.65,AS,1-------,Point (122.21666666666666856 40.64999999999999858)
AS,China,CHN,CNZJG,Zhangjiagang,Zhangjiagang,196865.5,120.53333333329999,31.866666666700002,AS,1-------,Point (120.53333333333333144 31.86666666666666714)
EU,United Kingdom,GBR,GBGRG,Grangemouth,Grangemouth,192244.0,-3.7166666667,56.0,AF,1-------,Point (-3.71666666666666679 56)
EU,United Kingdom,GBR,GBGRK,Greenock,Greenock,275567.66665,-4.75,55.9333333333,AF,1-------,Point (-4.75 55.93333333333333002)
EU,United Kingdom,GBR,GBHUL,Hull,Hull,219740.33333800003,-0.31666666670000004,53.7333333333,AF,1-------,Point (-0.31666666666666698 53.73333333333333428)
EU,United Kingdom,GBR,GBIMM,Immingham,Immingham,329625.0,-0.2166666667,53.6,AF,1-------,Point (-0.21666666666666701 53.60000000000000142)
EU,France,FRA,FRSET,S?te,Sete,34041.0,3.7,43.4,AF,123-----,Point (3.70000000000000018 43.39999999999999858)
EU,France,FRA,FRTLN,Toulon,Toulon,1080.0,5.9333333333,43.1166666667,AF,12-4----,Point (5.93333333333333357 43.11666666666666714)
EU,United Kingdom,GBR,GBABD,Aberdeen,Aberdeen,48681.0,-2.1,57.1333333333,AF,1--4----,Point (-2.10000000000000009 57.13333333333333286)
EU,United Kingdom,GBR,GBBEL,Belfast,Belfast,137826.0,-5.916666666699999,54.9833333333,AF,1--4-6--,Point (-5.91666666666666696 54.98333333333333428)
EU,France,FRA,FRMTX,Montoir-de-Bretagne,Montoir_de_bretagne,1130547.1665700001,-2.15,47.3333333333,AF,123-----,Point (-2.14999999999999991 47.3333333333333357)
EU,France,FRA,FRPOV,Port-Vendres,Port_vendres,21450.0,3.1166666667,42.5166666667,AF,12------,Point (3.11666666666666714 42.51666666666666572)
EU,France,FRA,FRRAD,Radicatel,Radicatel,42900.000002999994,0.5,49.5,RL,1-3-----,Point (0.5 49.5)
EU,France,FRA,FRURO,Rouen,Rouen,34842.0,1.1,49.45,AF,1-34----,Point (1.10000000000000009 49.45000000000000284)
EU,France,FRA,FRLPE,la Pallice,La_pallice,22725.0,-1.2166666667000001,46.1666666667,AF,1-------,Point (-1.21666666666666701 46.1666666666666643)
EU,France,FRA,FRLRH,La Rochelle,La_rochelle,33930.0,-1.15,46.1666666667,AF,12-4----,Point (-1.14999999999999991 46.1666666666666643)
EU,France,FRA,FRLEH,Le Havre,Le_havre,35976285.66561,0.1,49.5,AF,12345---,Point (0.10000000000000001 49.5)
EU,France,FRA,FRMRS,Marseille,Marseille,629024.0,5.4,43.3,AF,12-45---,Point (5.40000000000000036 43.29999999999999716)
,Guatemala,GTM,GTSTC,Puerto Santo Tom?s de Castilla,Puerto_santo_tomas_de_castilla,1241734.00006,-88.6166666667,15.7,AI,1-------,Point (-88.61666666666666003 15.69999999999999929)
OC,Guam,GUM,GUPIT,Piti,Piti,52903.5,144.6833333333,13.433333333299998,RL,--3-----,Point (144.68333333333333712 13.43333333333333357)
AF,Guinea-Bissau,GNB,GWOXB,Bissau,Bissau,114309.0,-15.583333333299999,11.85,AI,1-345---,Point (-15.58333333333333393 11.84999999999999964)
EU,Croatia,HRV,HRPLE,Ploce,Ploce,136773.0,17.4333333333,43.05,RL,123-----,Point (17.43333333333333357 43.04999999999999716)
EU,Greece,GRC,GRHER,Iraklion (Heraklion),Iraklion_heraklion,23582.0,25.1666666667,35.3333333333,AI,1--4----,Point (25.16666666666666785 35.3333333333333357)
EU,Greece,GRC,GRPIR,Piraeus,Piraeus,25227137.50884,23.616666666700002,37.9333333333,AI,1-------,Point (23.61666666666666714 37.93333333333333002)
EU,Greece,GRC,GRSKG,Thessalon?ki,Thessaloniki,790815.9999899999,22.95,40.6333333333,AI,1--45---,Point (22.94999999999999929 40.63333333333333286)
EU,Greece,GRC,GRVOL,V?los,Volos,23582.0,22.95,39.3666666667,AI,1--4----,Point (22.94999999999999929 39.36666666666666714)
SA,French Guiana,GUF,GFDDC,D?grad des Cannes,Degrad_des_cannes,286520.0,-52.2666666667,4.85,RL,1-------,Point (-52.26666666666666572 4.84999999999999964)
,Greenland,GRL,GLGOH,Nuuk (Godthaab),Nuuk_godthaab,23426.0,-51.75,64.1833333333,AI,1-34----,Point (-51.75 64.18333333333333712)
,Guadeloupe,GLP,GPPTP,Point-?-Pitre Apt,Point_a_pitre_apt,1970512.9165490002,-61.5166666667,16.2666666667,AF,1--45---,Point (-61.51666666666666572 16.26666666666666572)
EU,Greece,GRC,GRHER,Heraklion (Iraklion),Heraklion_iraklion,23582.0,25.1666666667,35.3333333333,AI,1--4----,Point (25.16666666666666785 35.3333333333333357)
EU,United Kingdom,GBR,GBLIV,Liverpool,Liverpool,1673890.29162,-3.0,53.4166666667,AF,1--4----,Point (-3 53.4166666666666643)
EU,United Kingdom,GBR,GBLGP,London Gateway Port,London_gateway_port,21704403.09242,0.4833333333,51.5,RL,123--6--,Point (0.483333333333333 51.5)
EU,United Kingdom,GBR,GBTEE,Teesport,Teesport,556920.0,-1.15,54.5833333333,AF,1-------,Point (-1.14999999999999991 54.5833333333333357)
EU,United Kingdom,GBR,GBTYN,Tyne,Tyne,31668.0,-1.4333333333000002,55.0,RQ,1-------,Point (-1.4333333333333329 55)
EU,Finland,FIN,FIHMN,Hamina (Fredrikshamn),Hamina_fredrikshamn,4437.0,27.2,60.5666666667,AI,1-------,Point (27.19999999999999929 60.56666666666666998)
EU,Finland,FIN,FIPRS,Jakobstad (Pietarsaari),Jakobstad_pietarsaari,9396.0,22.7833333333,63.6833333333,AI,123-----,Point (22.78333333333333499 63.68333333333333002)
EU,Finland,FIN,FIPRS,Pietarsaari (Jakobstad),Pietarsaari_jakobstad,9396.0,22.7833333333,63.6833333333,AI,123-----,Point (22.78333333333333499 63.68333333333333002)
EU,Finland,FIN,FIKOK,Karleby (Kokkola),Karleby_kokkola,39182.0,23.116666666700002,63.8333333333,AI,123-----,Point (23.11666666666666714 63.8333333333333357)
EU,Finland,FIN,FITKU,Turku (?bo),Turku_abo,16263.0,22.2833333333,60.45,AI,1-34----,Point (22.28333333333333499 60.45000000000000284)
EU,Finland,FIN,FIPOR,Bj?rneborg (Pori),Bjorneborg_pori,5220.0,21.8,61.4833333333,AI,1-34----,Point (21.80000000000000071 61.48333333333333428)
EU,Finland,FIN,FIPOR,Pori (Bj?rneborg),Pori_bjorneborg,5220.0,21.8,61.4833333333,AI,1-34----,Point (21.80000000000000071 61.48333333333333428)
EU,Finland,FIN,FIHMN,Fredrikshamn (Hamina),Fredrikshamn_hamina,4437.0,27.2,60.5666666667,AI,1-------,Point (27.19999999999999929 60.56666666666666998)
EU,Spain,ESP,ESSAG,Sagunto,Sagunto,417560.0,-0.2666666667,39.6833333333,AI,123-----,Point (-0.266666666666667 39.68333333333333002)
EU,Spain,ESP,ESSPC,Santa Cruz de La Palma,Santa_cruz_de_la_palma,245440.0,-17.7666666667,28.6833333333,AI,1--4----,Point (-17.76666666666666572 28.68333333333333357)
EU,Spain,ESP,ESVIL,Villagarc?a de Arosa,Villagarcia_de_arosa,130988.0,-8.75,42.6,AI,1-3-----,Point (-8.75 42.60000000000000142)
EU,Finland,FIN,FITKU,?bo (Turku),Abo_turku,16263.0,22.2833333333,60.45,AI,1-34----,Point (22.28333333333333499 60.45000000000000284)
EU,Spain,ESP,ESACE,Lanzarote,Lanzarote,421980.0,-13.5333333333,28.9666666667,AI,1--4----,Point (-13.53333333333333321 28.96666666666666501)
EU,Spain,ESP,ESLPA,Las Palmas de Gran Canaria,Las_palmas_de_gran_canaria,5009347.5287,-15.416666666700001,28.1,AI,1-3456--,Point (-15.41666666666666607 28.10000000000000142)
EU,Spain,ESP,ESAGP,M?laga,Malaga,439868.0,-4.4166666667,36.7166666667,AI,1--45---,Point (-4.41666666666666696 36.71666666666666856)
EU,Spain,ESP,ESMLN,Melilla,Melilla,45500.0,-2.8833333333,35.3166666667,AI,1-34----,Point (-2.88333333333333286 35.31666666666666998)
EU,France,FRA,FRBAS,Bassens,Bassens,33930.0,-0.5166666667,44.9,AF,12------,Point (-0.51666666666666705 44.89999999999999858)
EU,France,FRA,FRBES,Brest,Brest,107185.0,-4.4833333333,48.4,AF,1234----,Point (-4.48333333333333339 48.39999999999999858)
EU,France,FRA,FRDKK,Dunkerque,Dunkerque,4450642.08363,2.3833333333,51.0333333333,AF,12--5---,Point (2.38333333333333286 51.03333333333333144)
EU,France,FRA,FRFOS,Fos-sur-Mer,Fos_sur_mer,18248513.21553,4.9333333333,43.4333333333,AF,123---7-,Point (4.93333333333333357 43.43333333333333002)
OC,Fiji,FJI,FJLTK,Lautoka,Lautoka,490393.0,177.45,-17.616666666700002,RL,123-----,Point (177.44999999999998863 -17.61666666666666714)
OC,Fiji,FJI,FJSUV,Suva,Suva,535295.0,178.45,-18.133333333299998,AI,1--45---,Point (178.44999999999998863 -18.13333333333333286)
EU,Faroe Islands,FRO,FOKOL,Kollafj?rdur,Kollafjordur,82628.0,-6.8833333333,62.1166666667,RL,1-3-----,Point (-6.88333333333333286 62.11666666666666714)
EU,Faroe Islands,FRO,FOTHO,Thorshavn,Thorshavn,91104.0,-6.7666666667,62.0166666667,RL,1-------,Point (-6.76666666666666661 62.01666666666666572)
EU,Finland,FIN,FIRAU,Rauma (Raumo),Rauma_raumo,705561.49998,21.5,61.1333333333,AC,123----B,Point (21.5 61.13333333333333286)
EU,Finland,FIN,FIRAU,Raumo (Rauma),Raumo_rauma,705561.49998,21.5,61.1333333333,AC,123----B,Point (21.5 61.13333333333333286)
EU,Finland,FIN,FITOR,Torne? (Tornio),Tornea_tornio,91624.0,24.1833333333,65.85,AI,1-------,Point (24.18333333333333357 65.84999999999999432)
EU,Finland,FIN,FITOR,Tornio (Torne?),Tornio_tornea,91624.0,24.1833333333,65.85,AI,1-------,Point (24.18333333333333357 65.84999999999999432)
EU,Finland,FIN,FIKOK,Kokkola (Karleby),Kokkola_karleby,39182.0,23.116666666700002,63.8333333333,AI,123-----,Point (23.11666666666666714 63.8333333333333357)
EU,Finland,FIN,FIKEM,Kemi/Torne? (Kemi/Tornio),Kemi_tornea_kemi_tornio,106574.0,24.5666666667,65.7333333333,AI,1-34----,Point (24.56666666666666643 65.73333333333333428)
EU,Finland,FIN,FIKEM,Kemi/Tornio (Kemi/Torne?),Kemi_tornio_kemi_tornea,106574.0,24.5666666667,65.7333333333,AI,1-34----,Point (24.56666666666666643 65.73333333333333428)
EU,Finland,FIN,FIKTK,Kotka,Kotka,1116795.49992,26.9166666667,60.4666666667,AC,123----B,Point (26.91666666666666785 60.46666666666666856)
EU,Italy,ITA,ITCVV,Civitavecchia,Civitavecchia,2179445.6662,11.8,42.1,AI,1-------,Point (11.80000000000000071 42.10000000000000142)
EU,Italy,ITA,ITGOA,Genova,Genova,23896971.13205,8.95,44.4166666667,AI,12345---,Point (8.94999999999999929 44.4166666666666643)
EU,Italy,ITA,ITGIT,Gioia Tauro,Gioia_tauro,16628557.647729998,15.9,38.4166666667,AI,1-------,Point (15.90000000000000036 38.4166666666666643)
EU,Italy,ITA,ITSPE,La Spezia,La_spezia,12785874.4337,9.8333333333,44.1166666667,AI,1-------,Point (9.83333333333333393 44.11666666666666714)
EU,Italy,ITA,ITAOI,Ancona,Ancona,1251219.66666,13.5,43.6333333333,AI,1-34----,Point (13.5 43.63333333333333286)
EU,Italy,ITA,ITBRI,Bari,Bari,123851.0,16.85,41.1333333333,AI,1-34----,Point (16.85000000000000142 41.13333333333333286)
EU,Italy,ITA,ITCAG,Cagliari,Cagliari,61347.0,9.116666666699999,39.2166666667,AI,1-34----,Point (9.11666666666666714 39.21666666666666856)
EU,Italy,ITA,ITCTA,Catania,Catania,112515.0,15.1,37.5,AI,1-------,Point (15.09999999999999964 37.5)
AS,Iran Islamic Republic of,IRN,IRBND,Bandar Abbas,Bandar_abbas,1154182.75,56.2666666667,27.1833333333,AI,1--4----,Point (56.26666666666666572 27.18333333333333357)
AS,Iran Islamic Republic of,IRN,IRBKM,Bandar Khomeini,Bandar_khomeini,85644.0,49.1,30.4333333333,RL,1-34----,Point (49.10000000000000142 30.43333333333333357)
AS,Iran Islamic Republic of,IRN,IRBUZ,Bushehr,Bushehr,85644.0,50.8333333333,28.9666666667,AI,1-34----,Point (50.8333333333333357 28.96666666666666501)
EU,Iceland,ISL,ISREY,Reykjav?k,Reykjavik,327138.500001,-21.95,64.15,AC,1-------,Point (-21.94999999999999929 64.15000000000000568)
AS,India,IND,INTUT,Tuticorin,Tuticorin,1224891.0,78.1333333333,8.7833333333,AA,123--6--,Point (78.13333333333333997 8.78333333333333321)
AS,India,IND,INVTZ,Visakhapatnam,Visakhapatnam,2172514.49999,83.3,17.7,AA,1234-6--,Point (83.29999999999999716 17.69999999999999929)
AS,Iraq,IRQ,IQUQR,Umm Qasr Port,Umm_qasr_port,3640547.57158,47.9333333333,30.0333333333,RL,123-----,Point (47.93333333333333002 30.03333333333333499)
AS,Iran Islamic Republic of,IRN,IRASA,Asaluyeh,Asaluyeh,3060.0,52.6,27.4666666667,RL,1-3-----,Point (52.60000000000000142 27.46666666666666501)
AS,Japan,JPN,JPUKB,Kobe,Kobe,16494507.89249,135.1666666667,34.6833333333,AF,12345---,Point (135.16666666666665719 34.68333333333333002)
AS,Japan,JPN,JPMJR,Mitajiri,Mitajiri,18720.0,131.5833333333,34.0333333333,AF,123-----,Point (131.58333333333334281 34.03333333333333144)
AS,Japan,JPN,JPMOJ,Moji/Kitakyushu,Moji_kitakyushu,2497337.91658,130.9666666667,33.9,AF,123-5---,Point (130.96666666666666856 33.89999999999999858)
AS,Japan,JPN,JPOSA,Osaka,Osaka,9088752.83339,135.5,34.6666666667,AF,1--45---,Point (135.5 34.6666666666666643)
AS,Jordan,JOR,JOAQJ,Al 'Aqabah,Al_aqabah,5019094.2318400005,35.0,29.5333333333,RL,1--4----,Point (35 29.53333333333333499)
AS,Japan,JPN,JPHTD,Hakata,Hakata,3054288.2499700002,133.1,34.1833333333,RL,--3-----,Point (133.09999999999999432 34.18333333333333002)
AS,Japan,JPN,JPISS,Isa,Isa,362101.99997,130.6,32.05,AF,--3-----,Point (130.59999999999999432 32.04999999999999716)
AS,Japan,JPN,JPKKJ,Kitakyushu,Kitakyushu,476762.0,130.8333333333,33.8333333333,AF,12345---,Point (130.83333333333334281 33.8333333333333357)
EU,Italy,ITA,ITSVN,Savona,Savona,43661.0,8.5,44.2833333333,AI,123-----,Point (8.5 44.28333333333333144)
EU,Italy,ITA,ITTPS,Trapani,Trapani,41808.0,12.4833333333,38.0166666667,AI,1--4----,Point (12.4833333333333325 38.01666666666666572)
EU,Italy,ITA,ITVDL,Vado Ligure,Vado_ligure,1281768.42842,8.45,44.2666666667,RL,123-----,Point (8.44999999999999929 44.26666666666666572)
EU,Italy,ITA,ITVCE,Venezia,Venezia,1408195.66666,12.333333333299999,45.4333333333,AI,12345--B,Point (12.33333333333333393 45.43333333333333002)
EU,Italy,ITA,ITLIV,Livorno,Livorno,8253720.28535,10.3166666667,43.55,AI,1-------,Point (10.31666666666666643 43.54999999999999716)
EU,Italy,ITA,ITNAP,Napoli,Napoli,4010591.4281,14.25,40.8333333333,AI,1234----,Point (14.25 40.8333333333333357)
EU,Italy,ITA,ITOLB,Olbia,Olbia,11076.0,9.516666666699999,40.9166666667,RL,1234----,Point (9.5166666666666675 40.9166666666666643)
EU,Italy,ITA,ITPMO,Palermo,Palermo,35997.0,13.3666666667,38.1166666667,AI,1--4----,Point (13.36666666666666714 38.11666666666666714)
AS,Indonesia,IDN,IDPDG,Padang,Padang,74470.25,100.35,-0.95,AI,1234----,Point (100.34999999999999432 -0.94999999999999996)
AS,Indonesia,IDN,IDPER,Perawang,Perawang,3627.0,102.8666666667,1.0666666667,RL,1-3-----,Point (102.86666666666666003 1.0666666666666671)
AS,Indonesia,IDN,IDSRG,Semarang,Semarang,2529727.4166,110.4833333333,-6.966666666699999,AI,1-345---,Point (110.48333333333333428 -6.96666666666666679)
AS,Indonesia,IDN,IDSUB,Surabaya,Surabaya,5004081.14275,112.75,-7.2333333333,AI,123456--,Point (112.75 -7.23333333333333339)
AS,Indonesia,IDN,IDJKT,Jakarta Java,Jakarta_java,12060454.99297,106.8333333333,-6.1333333333,AI,12345---,Point (106.8333333333333286 -6.13333333333333375)
AS,Indonesia,IDN,IDDJJ,Jayapura Irian Jaya,Jayapura_irian_jaya,136162.0,140.7,-2.5333333333000003,AI,1-345---,Point (140.69999999999998863 -2.53333333333333321)
AS,Indonesia,IDN,IDKUM,Kumai,Kumai,4238.0,111.71666666670001,-2.7333333332999996,RL,1-3-----,Point (111.71666666666666856 -2.73333333333333295)
AS,Indonesia,IDN,IDMAK,Makassar,Makassar,664450.0,119.4,-5.1166666667000005,RL,1-3-----,Point (119.40000000000000568 -5.11666666666666625)
AS,Indonesia,IDN,IDBPN,Balikpapan,Balikpapan,77320.75,116.8333333333,-1.2833333332999999,AI,1--4----,Point (116.8333333333333286 -1.28333333333333299)
AS,Indonesia,IDN,IDBTM,Batam Island,Batam_island,7335.5,104.03333333329999,1.0833333333,RL,1-3-----,Point (104.03333333333333144 1.08333333333333304)
AS,Indonesia,IDN,IDBEN,Benete,Benete,12681.75,116.71666666670001,-8.866666666699999,RL,1-------,Point (116.71666666666666856 -8.86666666666666714)
AS,Indonesia,IDN,IDBOA,Benoa,Benoa,6747.0,115.21666666670001,-8.766666666699999,RL,1-------,Point (115.21666666666666856 -8.7666666666666675)
EU,Croatia,HRV,HRRJK,Rijeka,Rijeka,3818455.33338,14.4,45.3333333333,AI,1234----,Point (14.40000000000000036 45.3333333333333357)
EU,Croatia,HRV,HRSPU,Split,Split,63609.0,16.45,43.5,AI,1234----,Point (16.44999999999999929 43.5)
,Haiti,HTI,HTCAP,Cap-Ha?tien,Cap_haitien,47268.0,-72.2,19.75,AI,1--4----,Point (-72.20000000000000284 19.75)
,Haiti,HTI,HTLFF,Lafiteau,Lafiteau,1098127.3333,-72.4333333333,18.4833333333,AI,1-------,Point (-72.43333333333333712 18.48333333333333428)
AS,India,IND,INMRM,Marmugao (Marmagao),Marmugao_marmagao,100178.0,73.78333333329999,15.4,AA,123-----,Point (73.78333333333333144 15.40000000000000036)
AS,India,IND,INBOM,Mumbai (ex Bombay),Mumbai_ex_bombay,126915.25,72.8166666667,18.9666666667,AA,123456--,Point (72.81666666666666288 18.96666666666666501)
AS,India,IND,INPRT,Paradip Garh,Paradip_garh,28080.0,86.6166666667,20.3166666667,AA,123-----,Point (86.61666666666666003 20.31666666666666643)
AS,India,IND,INPAV,Pipavav (Victor) Port,Pipavav_victor_port,6333654.36387,71.55,20.9666666667,AA,123-----,Point (71.54999999999999716 20.96666666666666501)
AS,India,IND,INIXY,Kandla,Kandla,817280.5,70.21666666670001,23.0333333333,AA,1234-6--,Point (70.21666666666666856 23.03333333333333499)
AS,India,IND,INKTP,Kattupalli Port,Kattupalli_port,1964901.8999299998,80.3833333333,13.3,RL,123-----,Point (80.38333333333333997 13.30000000000000071)
AS,India,IND,INCCU,Kolkata (ex Calcutta),Kolkata_ex_calcutta,303853.53334,88.35,22.5666666667,AA,1--45---,Point (88.34999999999999432 22.56666666666666643)
AS,India,IND,INMRM,Marmagao (Marmugao),Marmagao_marmugao,100178.0,73.78333333329999,15.4,AA,123-----,Point (73.78333333333333144 15.40000000000000036)
AS,Israel,ISR,ILHFA,Haifa,Haifa,8470527.06813,34.9833333333,32.8,AI,1--45---,Point (34.98333333333333428 32.79999999999999716)
AS,India,IND,INMAA,Chennai (ex Madras),Chennai_ex_madras,2818763.3168,80.28333333329999,13.083333333299999,AA,12345---,Point (80.28333333333333144 13.08333333333333393)
AS,India,IND,INCOK,Cochin,Cochin,2453568.08328,76.2333333333,9.9666666667,AA,1234-6--,Point (76.23333333333333428 9.96666666666666679)
AS,India,IND,INHZR,Hazira,Hazira,5911162.58614,72.6234355746,21.0964104143,RL,--3--6--,Point (72.62343557464672017 21.09641041428134045)
AS,Indonesia,IDN,IDTNJ,Tanjungpinang,Tanjungpinang,3068.0,104.45,0.9166666667,AI,1--4----,Point (104.45000000000000284 0.91666666666666696)
AS,Indonesia,IDN,IDTMK,Timika,Timika,3240.0,136.55,-4.75,RQ,1-------,Point (136.55000000000001137 -4.75)
AS,Indonesia,IDN,IDTUA,Tual,Tual,12207.0,132.7333333333,-5.6333333333,RQ,1-------,Point (132.73333333333332007 -5.63333333333333286)
EU,Ireland,IRL,IEWAT,Waterford,Waterford,86515.0,-7.1,52.25,AF,1-345---,Point (-7.09999999999999964 52.25)
,Mexico,MEX,MXPMD,Puerto Madero,Puerto_madero,82680.0,-92.4166666667,14.7166666667,AI,1-3-----,Point (-92.4166666666666714 14.71666666666666679)
,Mexico,MEX,MXPMS,Puerto Morelos,Puerto_morelos,13533.0,-86.8666666667,20.8333333333,RL,1-3-----,Point (-86.86666666666666003 20.83333333333333215)
,Mexico,MEX,MXTAM,Tampico,Tampico,33951.0,-97.8666666667,22.25,AI,1--4----,Point (-97.86666666666666003 22.25)
,Mexico,MEX,MXTUX,Tuxpan,Tuxpan,21541.0,-97.4,20.95,AI,1-------,Point (-97.40000000000000568 20.94999999999999929)
,Mexico,MEX,MXLZC,L?zaro C?rdenas,Lazaro_cardenas,9280527.09983,-102.1833333333,17.95,AI,1-------,Point (-102.18333333333333712 17.94999999999999929)
,Mexico,MEX,MXZLO,Manzanillo,Manzanillo,14861828.2334,-104.3,19.05,AI,1-34----,Point (-104.29999999999999716 19.05000000000000071)
,Mexico,MEX,MXMZT,Mazatlan,Mazatlan,258563.0,-106.4,23.4,AI,1--4----,Point (-106.40000000000000568 23.39999999999999858)
,Mexico,MEX,MXPRO,Paraiso,Paraiso,771394.2,-92.2,18.1833333333,RL,--3-----,Point (-92.20000000000000284 18.18333333333333357)
,Mexico,MEX,MXATM,Altamira,Altamira,6907067.843176,-97.9166666667,22.4,RL,1-3-----,Point (-97.9166666666666714 22.39999999999999858)
,Mexico,MEX,MXCOA,Coatzacoalcos,Coatzacoalcos,9100.0,-94.4,18.133333333299998,AI,1--4----,Point (-94.40000000000000568 18.13333333333333286)
,Mexico,MEX,MXESE,Ensenada,Ensenada,3482019.6660800003,-116.6,31.85,AI,1--4----,Point (-116.59999999999999432 31.85000000000000142)
,Mexico,MEX,MXGYM,Guaymas,Guaymas,15320.0,-110.8833333333,27.9166666667,AI,1--4----,Point (-110.88333333333333997 27.91666666666666785)
AS,Myanmar,MMR,MMTLA,Thilawa,Thilawa,629785.00002,96.25,16.65,RL,123-----,Point (96.25 16.64999999999999858)
EU,Malta,MLT,MTMAR,Marsaxlokk,Marsaxlokk,12264680.76361,14.5333333333,35.8333333333,AA,1-------,Point (14.53333333333333321 35.8333333333333357)
AF,Mauritius,MUS,MUPMA,Port Mathurin,Port_mathurin,3451.5,63.4166666667,-19.6833333333,RL,1-3-----,Point (63.4166666666666643 -19.68333333333333357)
AS,Maldives,MDV,MVMLE,Male,Male,224938.42858,73.5,4.1666666667,AI,1--45---,Point (73.5 4.16666666666666696)
EU,Netherlands,NLD,NLIJM,IJmuiden/Velsen,Ijmuiden_velsen,9516.0,4.6,52.4666666667,AF,123-----,Point (4.59999999999999964 52.46666666666666856)
EU,Netherlands,NLD,NLMOE,Moerdijk,Moerdijk,172497.0,4.5666666667,51.6833333333,AF,123-----,Point (4.56666666666666643 51.68333333333333002)
EU,Netherlands,NLD,NLRTM,Rotterdam,Rotterdam,60986246.198819995,4.5,51.9166666667,AF,12345---,Point (4.5 51.9166666666666643)
EU,Netherlands,NLD,NLTNZ,Terneuzen,Terneuzen,24232.0,3.8166666667,51.4666666667,AF,1-3-----,Point (3.81666666666666599 51.46666666666666856)
AF,Nigeria,NGA,NGONN,Onne,Onne,1341939.73318,7.15,4.7166666667,RL,1-3-----,Point (7.15000000000000036 4.71666666666666679)
,Nicaragua,NIC,NIRAM,Rama,Rama,9106.5,-84.21666666670001,12.15,RL,1-3--6--,Point (-84.21666666666666856 12.15000000000000036)
EU,Netherlands,NLD,NLAMS,Amsterdam,Amsterdam,87949.333335,4.8166666667,52.4,AF,12345---,Point (4.81666666666666643 52.39999999999999858)
EU,Netherlands,NLD,NLBOT,Botlek,Botlek,33735.0,4.2833333333,51.8833333333,AF,1-3-----,Point (4.28333333333333321 51.88333333333333286)
,Namibia,,NALUD,L?deritz,Luderitz,43992.0,15.166666666700001,-26.65,AI,1--4----,Point (15.16666666666666607 -26.64999999999999858)
OC,New Caledonia,NCL,NCNOU,Noum?a,Noumea,1152154.33328,166.45,-22.2666666667,AI,1--45---,Point (166.44999999999998863 -22.26666666666666572)
OC,New Caledonia,NCL,NCNOU,Noum?a,Noumea,1152154.33328,166.45,-22.2666666667,AI,1--45---,Point (166.44999999999998863 -22.26666666666666572)
AF,Nigeria,NGA,NGLKK,Lekki,Lekki,23036.0,3.1,6.45,RL,--3-----,Point (3.10000000000000009 6.45000000000000018)
,Mexico,MEX,MXVER,Veracruz,Veracruz,8795504.270856,-96.0833333333,19.2,AI,1-345---,Point (-96.0833333333333286 19.19999999999999929)
AS,Malaysia,MYS,MYPEN,Penang (Georgetown),Penang_georgetown,3938506.0,100.3166666667,5.416666666699999,AI,1--4----,Point (100.31666666666666288 5.41666666666666696)
AS,Malaysia,MYS,MYPKG,Port Klang (Pelabuhan Klang),Port_klang_pelabuhan_klang,58866748.81721,101.4,3.0,RL,123-5---,Point (101.40000000000000568 3)
AS,Malaysia,MYS,MYTPP,Tanjung Pelepas,Tanjung_pelepas,36861511.88854,103.55,1.3666666666999998,RL,123-----,Point (103.54999999999999716 1.36666666666666692)
AS,Korea Republic of,KOR,KRMAS,Masan,Masan,292464.0,128.5666666667,35.2,AF,123-----,Point (128.56666666666666288 35.20000000000000284)
AS,Korea Republic of,KOR,KRMOK,Mokpo,Mokpo,64792.0,126.3833333333,34.8,AF,123-----,Point (126.38333333333333997 34.79999999999999716)
AS,Korea Republic of,KOR,KRKPO,Pohang,Pohang,704296.6666100001,129.3666666667,36.0333333333,AF,1234----,Point (129.36666666666667425 36.03333333333333144)
AS,Korea Republic of,KOR,KRPTK,Pyeongtaek,Pyeongtaek,201565.00002,127.1,36.9666666667,AF,123--6--,Point (127.09999999999999432 36.96666666666666856)
AS,Korea Republic of,KOR,KRTJI,Dangjin,Dangjin,80514.0,126.78333333329999,36.9666666667,AF,1-3-----,Point (126.78333333333333144 36.96666666666666856)
AS,Korea Republic of,KOR,KRKUV,Gunsan,Gunsan,367380.0,126.71666666670001,35.9833333333,AF,1234----,Point (126.71666666666666856 35.98333333333333428)
AS,Korea Republic of,KOR,KRKAN,Gwangyang,Gwangyang,16515872.09351,127.7,34.9333333333,AF,123-----,Point (127.70000000000000284 34.93333333333333002)
AS,Korea Republic of,KOR,KRINC,Incheon,Incheon,7323842.773680001,126.6166666667,37.45,AF,123-----,Point (126.61666666666666003 37.45000000000000284)
AF,Comoros,COM,KMMUT,Mutsamudu Anjouan,Mutsamudu_anjouan,143131.33335,44.3833333333,-12.15,RL,1-3-----,Point (44.38333333333333286 -12.15000000000000036)
,Saint Kitts and Nevis,,KNCHA,Charlestown,Charlestown,230958.0,-62.6166666667,17.133333333299998,RL,1--4----,Point (-62.61666666666666714 17.13333333333333286)
AS,Korea Republic of,KOR,KRPUS,Busan,Busan,97226625.82995799,129.05,35.1333333333,AF,-1234567,Point (129.05000000000001137 35.13333333333333286)
AS,Korea Republic of,KOR,KRTSN,Daesan/Seosan,Daesan_seosan,391261.0,126.3666666667,37.0,AF,1-------,Point (126.36666666666666003 37)
AS,Japan,JPN,JPSEN,Satsumasendai,Satsumasendai,1041560.00002,130.25,31.8166666667,AF,1-------,Point (130.25 31.81666666666666643)
AS,Japan,JPN,JPTYO,Tokyo,Tokyo,20969567.5829,139.75,35.6833333333,AF,12345---,Point (139.75 35.68333333333333002)
AS,Japan,JPN,JPYOK,Yokohama,Yokohama,26921996.62454,139.65,35.45,AF,12345---,Point (139.65000000000000568 35.45000000000000284)
AS,Cambodia,KHM,KHKOS,K?mp?ng Sa?m,Kampong_saom,1342444.99985,103.5166666667,10.6,AI,1-34--7-,Point (103.51666666666666572 10.59999999999999964)
AF,Madagascar,MDG,MGEHL,Ehoala,Ehoala,19864.0,46.95,-25.0666666667,RL,1-------,Point (46.95000000000000284 -25.06666666666666643)
AF,Madagascar,MDG,MGNOS,Nosy-Be,Nosy_be,60888.0,48.25,-13.333333333299999,AI,1-34----,Point (48.25 -13.33333333333333393)
OC,Marshall Islands,,MHMAJ,Majuro,Majuro,238090.666682,171.3833333333,7.1,AI,1--4----,Point (171.38333333333332575 7.09999999999999964)
AS,Myanmar,MMR,MMTLA,Thilawa,Thilawa,629785.00002,96.25,16.65,RL,123-----,Point (96.25 16.64999999999999858)
AF,Libya,LBY,LYKHO,Al Khums,Al_khums,230254.00001,14.2666666667,32.65,RL,1-3-----,Point (14.2666666666666675 32.64999999999999858)
AF,Morocco,MAR,MACAS,Casablanca,Casablanca,2434027.9715,-7.6,33.5833333333,AI,1--45---,Point (-7.59999999999999964 33.5833333333333357)
EU,Moldova Republic of,MDA,MDGIU,Giurgiulesti,Giurgiulesti,1560.0,28.1833333333,45.4666666667,RL,1-3-----,Point (28.18333333333333357 45.46666666666666856)
EU,Montenegro,MNE,MEBAR,Bar,Bar,257803.0,19.0833333333,42.0833333333,RL,123-----,Point (19.08333333333333215 42.0833333333333357)
AS,Lebanon,LBN,LBBEY,Beirut,Beirut,8332419.5044,35.4833333333,33.8333333333,AI,1--45---,Point (35.48333333333333428 33.8333333333333357)
,Saint Lucia,,LCCAS,Castries,Castries,395089.06669,-60.9666666667,14.0166666667,RL,1-3-----,Point (-60.96666666666666856 14.0166666666666675)
AS,Sri Lanka,LKA,LKCMB,Colombo,Colombo,40970827.24107,79.85,6.916666666699999,AI,12345---,Point (79.84999999999999432 6.91666666666666696)
AF,Liberia,LBR,LRMLW,Monrovia,Monrovia,467272.00002,-10.8,6.3,AI,1-345---,Point (-10.80000000000000071 6.29999999999999982)
AS,Korea Republic of,KOR,KRUSN,Ulsan,Ulsan,4923083.749969999,129.3166666667,35.5333333333,AF,1234----,Point (129.31666666666666288 35.53333333333333144)
AS,Kuwait,KWT,KWSAA,Shuaiba,Shuaiba,770515.0,48.1333333333,29.0333333333,RL,1-3--6--,Point (48.13333333333333286 29.03333333333333499)
AS,Kuwait,KWT,KWSWK,Shuwaikh,Shuwaikh,272129.0,47.9333333333,29.35,RL,1-------,Point (47.93333333333333002 29.35000000000000142)
,Cayman Islands,CYM,KYGEC,Georgetown Grand Cayman,Georgetown_grand_cayman,20059.0,-81.3833333333,19.3,AI,1-34----,Point (-81.38333333333333997 19.30000000000000071)
OC,New Zealand,NZL,NZNPE,Napier,Napier,3423163.56929,176.9,-39.4666666667,AC,1--4----,Point (176.90000000000000568 -39.46666666666666856)
OC,New Zealand,NZL,NZNSN,Nelson,Nelson,1229461.9998700002,173.2666666667,-41.25,AC,1-34----,Point (173.26666666666667993 -41.25)
OC,New Zealand,NZL,NZPOE,Port Chalmers,Port_chalmers,1736542.9262700002,170.6,-45.8166666667,AC,1-------,Point (170.59999999999999432 -45.81666666666666998)
OC,New Zealand,NZL,NZTRG,Tauranga,Tauranga,6568750.56919,176.1666666667,-37.6833333333,AI,1234----,Point (176.16666666666665719 -37.68333333333333002)
OC,New Zealand,NZL,NZAKL,Auckland,Auckland,3839723.35484,174.8,-36.8333333333,AC,12345---,Point (174.80000000000001137 -36.8333333333333357)
OC,New Zealand,NZL,NZBLU,Bluff,Bluff,537012.66663,168.3166666667,-46.6,AC,123-----,Point (168.31666666666666288 -46.60000000000000142)
OC,New Zealand,NZL,NZLYT,Lyttelton,Lyttelton,2992885.6904,172.71666666669998,-43.6,AC,1-3-----,Point (172.71666666666666856 -43.60000000000000142)
OC,New Zealand,NZL,NZMAP,Marsden Point,Marsden_point,722904.00003,174.5,-35.8333333333,AC,1-3-----,Point (174.5 -35.8333333333333357)
EU,Norway,NOR,NOTAE,Tananger,Tananger,348445.5,5.583333333300001,58.9166666667,AA,1-3-----,Point (5.58333333333333304 58.9166666666666643)
EU,Norway,NOR,NOTOS,Troms?,Tromso,9516.0,18.9666666667,69.6666666667,AI,1-34----,Point (18.96666666666666501 69.6666666666666714)
EU,Norway,NOR,NOTRD,Trondheim,Trondheim,9516.0,10.4,63.4333333333,AA,1234----,Point (10.40000000000000036 63.43333333333333002)
OC,Nauru,NRU,NRINU,Nauru Island,Nauru_island,3756.0,166.9166666667,-0.55,AI,1--45---,Point (166.91666666666665719 -0.55000000000000004)
EU,Norway,NOR,NOSKN,Stokmarknes,Stokmarknes,34164.0,14.9,68.5666666667,AA,1-34----,Point (14.90000000000000036 68.56666666666666288)
EU,Norway,NOR,NOSUN,Sunndals?ra,Sunndalsora,107250.0,8.55,62.6666666667,AF,1-3-----,Point (8.55000000000000071 62.6666666666666643)
EU,Norway,NOR,NOSVE,Svelgen,Svelgen,34164.0,5.2833333333,61.7666666667,AA,1-3-----,Point (5.28333333333333321 61.76666666666666572)
EU,Norway,NOR,NOSVJ,Svolv?r,Svolvar,9516.0,14.55,68.21666666670001,AA,1-34----,Point (14.55000000000000071 68.21666666666666856)
AS,Philippines,PHL,PHTGO,Tagoloan,Tagoloan,12150.0,124.75,8.5333333333,RL,1-3-----,Point (124.75 8.53333333333333321)
EU,Poland,POL,PLGDY,Gdynia,Gdynia,1377819.16662,18.55,54.5,RL,123-----,Point (18.55000000000000071 54.5)
EU,Poland,POL,PLSWI,Swinoujscie,Swinoujscie,16263.0,14.25,53.9,RL,123-----,Point (14.25 53.89999999999999858)
,Puerto Rico,PRI,PRSJU,San Juan,San_juan,914875.5000299999,-66.0833333333,18.45,AI,1--45---,Point (-66.0833333333333286 18.44999999999999929)
OC,Papua New Guinea,PNG,PGMAG,Madang,Madang,168130.0,145.7833333333,-5.2166666667,AI,1--4----,Point (145.78333333333333144 -5.21666666666666679)
OC,Papua New Guinea,PNG,PGMTK,Motukea Island,Motukea_island,301007.5,147.1,-9.4333333333,RL,1-------,Point (147.09999999999999432 -9.43333333333333357)
AS,Philippines,PHL,PHBTG,Batangas/Luzon,Batangas_luzon,1811559.5,121.05,13.75,AI,1-3--6--,Point (121.04999999999999716 13.75)
AS,Philippines,PHL,PHGES,General Santos,General_santos,925870.8334100001,125.15,6.1166666667,AI,1-34----,Point (125.15000000000000568 6.11666666666666625)
,Panama,PAN,PAPTY,Panam? Ciudad de,Panama_ciudad_de,13494.0,-79.53333333329999,8.9666666667,AI,1-345---,Point (-79.53333333333333144 8.96666666666666679)
,Panama,PAN,PAROD,Rodman,Rodman,4784764.04532,-79.5666666667,8.95,RL,1-------,Point (-79.56666666666666288 8.94999999999999929)
OC,French Polynesia,PYF,PFBOB,Bora Bora,Bora_bora,726.75,-151.75,-16.45,AI,1--4----,Point (-151.75 -16.44999999999999929)
OC,French Polynesia,PYF,PFPPT,Papeete,Papeete,1092395.0833,-149.6166666667,-17.55,AI,1--45---,Point (-149.61666666666667425 -17.55000000000000071)
OC,New Zealand,NZL,NZTIU,Timaru,Timaru,1399570.2597299998,171.25,-44.3833333333,AC,1234----,Point (171.25 -44.38333333333333286)
OC,New Zealand,NZL,NZWLG,Wellington,Wellington,1605903.30931,174.78333333330002,-41.2666666667,AC,1234----,Point (174.78333333333333144 -41.26666666666666572)
,Panama,PAN,PAONX,Col?n,Colon,5425996.68804,-79.8666666667,9.35,AI,1-345---,Point (-79.86666666666666003 9.34999999999999964)
,Panama,PAN,PACTB,Crist?bal,Cristobal,7696418.251089999,-79.9,9.35,AI,1-------,Point (-79.90000000000000568 9.34999999999999964)
EU,Norway,NOR,NOGLO,Glomfjord,Glomfjord,34164.0,13.933333333299998,66.8,AA,1-3-----,Point (13.93333333333333357 66.79999999999999716)
EU,Norway,NOR,NOHFT,Hammerfest,Hammerfest,9516.0,23.6666666667,70.65,AA,1-34----,Point (23.66666666666666785 70.65000000000000568)
EU,Norway,NOR,NOHRD,Harstad,Harstad,9516.0,16.5333333333,68.78333333329999,AA,1-3-----,Point (16.53333333333333499 68.78333333333333144)
EU,Norway,NOR,NOHAU,Haugesund,Haugesund,337486.5,5.25,59.4,AA,1-34----,Point (5.25 59.39999999999999858)
EU,Norway,NOR,NOEGE,Egersund,Egersund,142428.0,6.0,58.45,AA,1-3-----,Point (6 58.45000000000000284)
EU,Norway,NOR,NOFRO,Flor?,Floro,203580.0,5.0166666667,61.6,AA,1-34----,Point (5.01666666666666661 61.60000000000000142)
EU,Norway,NOR,NOFRK,Fredrikstad,Fredrikstad,111033.0,10.916666666700001,59.2,AA,123-----,Point (10.91666666666666607 59.20000000000000284)
EU,Norway,NOR,NOFUS,Fusa,Fusa,99528.0,5.6166666667,60.2,AA,1-------,Point (5.61666666666666714 60.20000000000000284)
EU,Norway,NOR,NOBGO,Bergen,Bergen,330739.5,5.3166666667,60.3833333333,AA,1234----,Point (5.31666666666666643 60.38333333333333286)
EU,Norway,NOR,NOBOO,Bod?,Bodo,9516.0,14.3666666667,67.28333333329999,AA,1234----,Point (14.36666666666666714 67.28333333333333144)
EU,Norway,NOR,NOBVK,Brevik,Brevik,50128.0,9.7,59.05,AA,1-3-----,Point (9.69999999999999929 59.04999999999999716)
EU,Norway,NOR,NODRM,Drammen,Drammen,145713.0,10.233333333300001,59.7333333333,AA,123-----,Point (10.2333333333333325 59.73333333333333428)
EU,Netherlands,NLD,NLVLI,Vlissingen,Vlissingen,935022.4000120001,3.7,51.45,AF,123-----,Point (3.70000000000000018 51.45000000000000284)
EU,Norway,NOR,NOAES,?lesund,Alesund,450729.5,6.15,62.4666666667,AF,1-34----,Point (6.15000000000000036 62.46666666666666856)
EU,Norway,NOR,NOARD,?rdalstangen,Ardalstangen,23400.0,7.7,61.2333333333,AA,1-3-----,Point (7.70000000000000018 61.23333333333333428)
EU,Norway,NOR,NOAVE,Aver?y,Averoy,34164.0,7.666666666699999,63.05,AA,1-------,Point (7.66666666666666696 63.04999999999999716)
EU,Norway,NOR,NOORK,Orkanger,Orkanger,132567.5,9.8333333333,63.3166666667,AA,1-3-----,Point (9.83333333333333393 63.31666666666666998)
EU,Norway,NOR,NOOSL,Oslo,Oslo,370877.0,10.733333333300001,59.9,AA,12345---,Point (10.7333333333333325 59.89999999999999858)
EU,Norway,NOR,NOSAT,Salten,Salten,34164.0,15.583333333299999,67.3666666667,AA,1-3-----,Point (15.58333333333333393 67.36666666666666003)
EU,Norway,NOR,NOSVG,Stavanger,Stavanger,99528.0,5.75,58.9666666667,AI,1234----,Point (5.75 58.96666666666666856)
EU,Norway,NOR,NOMOL,Molde,Molde,9516.0,7.15,62.7333333333,AA,1-34----,Point (7.15000000000000036 62.73333333333333428)
EU,Norway,NOR,NOMJF,Mosj?en,Mosjoen,42276.0,13.2,65.8333333333,AF,1234----,Point (13.19999999999999929 65.8333333333333286)
EU,Norway,NOR,NOMSS,Moss,Moss,51012.0,10.65,59.4166666667,AA,123-----,Point (10.65000000000000036 59.4166666666666643)
EU,Norway,NOR,NOODD,Odda,Odda,19240.0,6.533333333300001,60.0666666667,AA,1-3-----,Point (6.53333333333333321 60.06666666666666998)
EU,Norway,NOR,NOIKR,Ikornnes,Ikornnes,69888.0,6.55,62.3833333333,AA,1-3-----,Point (6.54999999999999982 62.38333333333333286)
EU,Norway,NOR,NOKRS,Kristiansand,Kristiansand,86460.0,7.9833333333,58.1333333333,AA,123-----,Point (7.98333333333333339 58.13333333333333286)
EU,Norway,NOR,NOLAR,Larvik,Larvik,123903.0,10.016666666699999,59.0333333333,AA,123-----,Point (10.0166666666666675 59.03333333333333144)
EU,Norway,NOR,NOMAY,M?l?y,Maloy,347613.5,5.1,61.9333333333,AF,1-3-----,Point (5.09999999999999964 61.93333333333333002)
EU,Norway,NOR,NOHVI,H?vik,Havik,116610.0,5.3166666667,59.3,AA,1-3-----,Point (5.31666666666666643 59.29999999999999716)
EU,Norway,NOR,NOHLA,Holla,Holla,45630.0,9.1833333333,59.6,RL,--3-----,Point (9.18333333333333357 59.60000000000000142)
EU,Norway,NOR,NOHYR,H?yanger,Hoyanger,39357.5,6.05,61.2166666667,AA,1-3-----,Point (6.04999999999999982 61.21666666666666856)
EU,Norway,NOR,NOHOY,Hus?y - T?nsberg,Husoy___tonsberg,17160.0,10.45,59.2333333333,AA,1-3-----,Point (10.44999999999999929 59.23333333333333428)
AS,Syrian Arab Republic,SYR,SYTTS,Tartus,Tartus,103493.0,35.9,34.9,RL,1-3-----,Point (35.89999999999999858 34.89999999999999858)
AS,Thailand,THA,THBKK,Bangkok,Bangkok,4526246.83351,100.5166666667,13.75,AI,12345---,Point (100.51666666666666572 13.75)
AS,Thailand,THA,THLCH,Laem Chabang,Laem_chabang,21757591.19655,100.8833333333,13.083333333299999,RL,1-3-----,Point (100.88333333333333997 13.08333333333333393)
AS,Thailand,THA,THHKT,Phuket International Apt,Phuket_international_apt,44898.75,98.3166666667,8.116666666699999,AA,---4----,Point (98.31666666666666288 8.11666666666666714)
EU,Sweden,SWE,SESDL,Sundsvall,Sundsvall,51928.5,17.3,62.3833333333,AA,1-34----,Point (17.30000000000000071 62.38333333333333286)
EU,Sweden,SWE,SEUME,Ume?,Umea,51928.5,20.25,63.8333333333,AI,1234----,Point (20.25 63.8333333333333357)
EU,Sweden,SWE,SEVST,V?ster?s,Vasteras,21103.333335,16.55,59.6166666667,AA,1234----,Point (16.55000000000000071 59.61666666666666714)
AS,Syrian Arab Republic,SYR,SYLTK,Latakia,Latakia,719300.0,35.7833333333,35.5166666667,AI,1--4----,Point (35.78333333333333144 35.51666666666666572)
EU,Sweden,SWE,SEOXE,Oxel?sund,Oxelosund,73031.833335,17.1,58.6666666667,AA,123-----,Point (17.10000000000000142 58.6666666666666643)
EU,Sweden,SWE,SEPIT,Pite?,Pitea,67392.0,21.5,65.3333333333,AA,123-----,Point (21.5 65.3333333333333286)
EU,Sweden,SWE,SESOE,S?dert?lje,Sodertalje,54799.333335,17.616666666700002,59.2,AA,123--6--,Point (17.61666666666666714 59.20000000000000284)
EU,Sweden,SWE,SESTO,Stockholm,Stockholm,227955.0,18.05,59.3333333333,AA,12345---,Point (18.05000000000000071 59.3333333333333357)
EU,Sweden,SWE,SEHAD,Halmstad,Halmstad,48750.0,12.85,56.6666666667,AA,1234----,Point (12.84999999999999964 56.6666666666666643)
EU,Sweden,SWE,SEKSD,Karlstad,Karlstad,3312.0,13.5,59.3666666667,AA,1--4----,Point (13.5 59.36666666666666714)
EU,Sweden,SWE,SENRK,Norrk?ping,Norrkoping,296309.0,16.1833333333,58.6,AA,1234----,Point (16.18333333333333357 58.60000000000000142)
EU,Sweden,SWE,SEOSK,Oskarshamn,Oskarshamn,84688.5,16.4333333333,57.2666666667,AA,123-----,Point (16.43333333333333357 57.26666666666666572)
EU,Turkey,TUR,TRIZT,Izmit,Izmit,8619638.16651,29.95,40.7833333333,RL,123-----,Point (29.94999999999999929 40.78333333333333144)
EU,Turkey,TUR,TRKMX,Kumport,Kumport,829400.0,28.8166666667,40.95,RQ,123-----,Point (28.81666666666666643 40.95000000000000284)
EU,Turkey,TUR,TRLMA,Limas,Limas,31720.0,26.9166666667,38.75,RQ,1-------,Point (26.91666666666666785 38.75)
EU,Turkey,TUR,TRMAD,Mardas,Mardas,103532.0,28.95,41.0166666667,RQ,123-----,Point (28.94999999999999929 41.01666666666666572)
EU,Turkey,TUR,TRGEB,Gebze,Gebze,3850254.1415,29.4166666667,40.7833333333,RL,123-----,Point (29.41666666666666785 40.78333333333333144)
EU,Turkey,TUR,TRGEM,Gemlik,Gemlik,5852461.24141,29.15,40.4166666667,RL,1-------,Point (29.14999999999999858 40.4166666666666643)
EU,Turkey,TUR,TRISK,Iskenderun,Iskenderun,5577045.5832400005,36.1666666667,36.5833333333,RL,123-----,Point (36.1666666666666643 36.5833333333333357)
EU,Turkey,TUR,TRIZM,Izmir,Izmir,3559402.87503,27.15,38.4166666667,AI,12345---,Point (27.14999999999999858 38.4166666666666643)
EU,Turkey,TUR,TRAYT,Antalya,Antalya,111670.0,30.6,36.8333333333,AI,1234----,Point (30.60000000000000142 36.8333333333333357)
EU,Turkey,TUR,TRBDM,Bandirma,Bandirma,19968.0,27.9666666667,40.35,AI,1234----,Point (27.96666666666666501 40.35000000000000142)
EU,Turkey,TUR,TRELI,Eregli,Eregli,46215.0,34.05,37.5,RL,--3-----,Point (34.04999999999999716 37.5)
EU,Turkey,TUR,TREYP,Evyap Port /Kocaeli,Evyap_port__kocaeli,2234864.6663,29.7,40.7666666667,RL,123-----,Point (29.69999999999999929 40.76666666666666572)
AS,Thailand,THA,THSCS,Sahathai Coastal Seaport,Sahathai_coastal_seaport,91563.33335,100.53333333329999,13.65,RQ,1-3-----,Point (100.53333333333333144 13.65000000000000036)
AS,Timor-Leste,,TLDIL,Dili,Dili,34187.75,125.5666666667,-8.55,RL,1-34----,Point (125.56666666666666288 -8.55000000000000071)
OC,Tonga,TON,TOTBU,Nuku'alofa,Nukualofa,178599.5,-175.2,-21.133333333299998,AI,1--45---,Point (-175.19999999999998863 -21.13333333333333286)
EU,Turkey,TUR,TRPAM,Ambarli,Ambarli,14411413.26653,39.1666666667,41.0333333333,RL,--3-----,Point (39.1666666666666643 41.03333333333333144)
EU,Portugal,PRT,PTSIE,Sines,Sines,11424189.3652,-8.866666666699999,37.95,AI,1234----,Point (-8.86666666666666714 37.95000000000000284)
EU,Portugal,PRT,PTVEL,Velas,Velas,47190.0,-28.2166666667,38.6833333333,AI,1-3-----,Point (-28.21666666666666501 38.68333333333333002)
EU,Portugal,PRT,PTVDP,Vila do Porto,Vila_do_porto,13468.0,-25.15,36.9333333333,RL,1-3-----,Point (-25.14999999999999858 36.93333333333333002)
SA,Paraguay,PRY,PYASU,Asunci?n,Asuncion,13793.0,-57.6666666667,-25.2666666667,AI,1--45---,Point (-57.6666666666666643 -25.26666666666666572)
EU,Portugal,PRT,PTPRG,Praia da Graciosa,Praia_da_graciosa,19500.0,-27.9666666667,39.05,AI,1-3-----,Point (-27.96666666666666501 39.04999999999999716)
EU,Portugal,PRT,PTPRV,Praia da Vit?ria,Praia_da_vitoria,109096.0,-27.0666666667,38.7333333333,AI,1-3-----,Point (-27.06666666666666643 38.73333333333333428)
EU,Portugal,PRT,PTSCF,Santa Cruz das Flores,Santa_cruz_das_flores,16146.0,-31.116666666700002,39.45,RL,1-3-----,Point (-31.11666666666666714 39.45000000000000284)
EU,Portugal,PRT,PTSET,Set?bal,Setubal,443319.5,-8.9,38.5333333333,AI,123-----,Point (-8.90000000000000036 38.53333333333333144)
EU,Portugal,PRT,PTLIS,Lisboa,Lisboa,1373631.16673,-9.133333333300001,38.7166666667,AI,12345---,Point (-9.13333333333333286 38.71666666666666856)
EU,Portugal,PRT,PTPIC,Pico,Pico,23192.0,-8.4166666667,41.6833333333,RL,--3-----,Point (-8.41666666666666607 41.68333333333333002)
EU,Portugal,PRT,PTPDL,Ponta Delgada,Ponta_delgada,109096.0,-25.6666666667,37.7333333333,AI,1-345---,Point (-25.66666666666666785 37.73333333333333428)
EU,Portugal,PRT,PTPXO,Porto Santo Island,Porto_santo_island,28236.0,-16.3333333333,33.0666666667,AI,1--4---B,Point (-16.33333333333333215 33.06666666666666998)
EU,Portugal,PRT,PTCNL,Cani?al,Canical,70018.0,-16.7333333333,32.7333333333,RL,1-3-----,Point (-16.73333333333333428 32.73333333333333428)
EU,Portugal,PRT,PTFDF,Figueira da Foz,Figueira_da_foz,26754.0,-8.866666666699999,40.15,AI,123-----,Point (-8.86666666666666714 40.14999999999999858)
EU,Portugal,PRT,PTHOR,Horta,Horta,32292.0,-28.633333333299998,38.5333333333,AI,1-34----,Point (-28.63333333333333286 38.53333333333333144)
EU,Portugal,PRT,PTLEI,Leix?es,Leixoes,1619530.783304,-8.6833333333,41.1833333333,AI,123-----,Point (-8.68333333333333357 41.18333333333333002)
AS,Saudi Arabia,SAU,SAYNB,Yanbu al-Bahr,Yanbu_al_bahr,49257.0,38.0333333333,24.0833333333,AI,1-34----,Point (38.03333333333333144 24.08333333333333215)
EU,Sweden,SWE,SEAHU,?hus,Ahus,33696.0,14.2833333333,55.9166666667,AA,123-----,Point (14.28333333333333321 55.9166666666666643)
EU,Sweden,SWE,SEGVX,G?vle,Gavle,278876.0,17.1666666667,60.6666666667,AA,1--4----,Point (17.16666666666666785 60.6666666666666643)
EU,Sweden,SWE,SEGOT,G?teborg,Goteborg,3614371.42828,11.9666666667,57.7166666667,AA,12345---,Point (11.96666666666666679 57.71666666666666856)
EU,Russian Federation,RUS,RUZAR,Zarubino,Zarubino,8476.0,131.0833333333,42.6166666667,RL,1-------,Point (131.08333333333334281 42.61666666666666714)
AS,Saudi Arabia,SAU,SADMM,Ad Dammam,Ad_dammam,11255729.646892,50.1,26.4166666667,RL,12345---,Point (50.10000000000000142 26.41666666666666785)
AS,Saudi Arabia,SAU,SAJED,Jeddah,Jeddah,28479677.91178,39.1666666667,21.5333333333,AI,1--45---,Point (39.1666666666666643 21.53333333333333499)
AS,Saudi Arabia,SAU,SAKAC,King Abdullah City,King_abdullah_city,13582128.1473,39.0833333333,22.4,RQ,1-3-----,Point (39.0833333333333357 22.39999999999999858)
EU,Russian Federation,RUS,RUNVS,Novorossiysk,Novorossiysk,2856095.66681,37.7666666667,44.7166666667,RL,123--6--,Point (37.76666666666666572 44.71666666666666856)
EU,Russian Federation,RUS,RULED,Saint Petersburg (ex Leningrad),Saint_petersburg_ex_leningrad,2197863.904679,30.25,59.8833333333,AI,12345---,Point (30.25 59.88333333333333286)
EU,Russian Federation,RUS,RUULU,Ust'-Luga,Ust_luga,217892.99998000002,28.3166666667,59.6666666667,RL,123-----,Point (28.31666666666666643 59.6666666666666643)
EU,Russian Federation,RUS,RUVYP,Vostochnyy Port,Vostochnyy_port,694044.0,133.05,42.7666666667,RL,1-------,Point (133.05000000000001137 42.76666666666666572)
AS,Qatar,QAT,QAHMD,BGN/PCGN1956 - HAMAD,Bgn_pcgn1956___hamad,11570563.36089,51.6166666667,25.0,RL,1-------,Point (51.61666666666666714 25)
AS,Qatar,QAT,QAMES,Mesaieed,Mesaieed,87230.0,51.9166666667,25.633333333299998,RQ,1----6--,Point (51.9166666666666643 25.63333333333333286)
EU,Romania,ROU,ROCND,Constanta,Constanta,4202750.06681,28.65,44.1833333333,AI,1234-6--,Point (28.64999999999999858 44.18333333333333002)
EU,Russian Federation,RUS,RUBRK,Lomonosov,Lomonosov,172926.0,29.7333333333,59.9,RL,123-----,Point (29.73333333333333428 59.89999999999999858)
AF,South Africa,ZAF,ZADUR,Durban,Durban,8754191.121860001,31.0166666667,-29.85,AI,12345---,Point (31.01666666666666572 -29.85000000000000142)
AS,United Arab Emirates,ARE,AEAJM,Ajman,Ajman,73567.0,55.47878000000001,25.401770000000003,RL,1-3-----,Point (55.47878000000000043 25.40176999999999907)
AS,United Arab Emirates,ARE,AEJEA,Jebel Ali,Jebel_ali,44524119.850148,55.108109999999996,25.00255,QQ,1-------,Point (55.10811000000000348 25.00254999999999939)
,Anguilla,AIA,AIAXA,Anguilla,Anguilla,230958.0,-63.09375,18.176479999999998,AI,---45---,Point (-63.09375 18.17648000000000152)
OC,Wallis and Futuna,,WFFUT,Vele Futuna I. Apt,Vele_futuna_i._apt,10200.0,-178.0833333333,-14.316666666700002,AI,---4----,Point (-178.08333333333334281 -14.31666666666666643)
AF,Mayotte,MYT,YTLON,Longoni,Longoni,298158.99998,45.1666666667,-12.7166666667,AA,1-3-----,Point (45.1666666666666643 -12.71666666666666679)
AF,South Africa,ZAF,ZACPT,Cape Town,Cape_town,4902763.6243,18.4166666667,-33.9166666667,AF,12345---,Point (18.41666666666666785 -33.9166666666666643)
AF,South Africa,ZAF,ZAZBA,Coega,Coega,3467734.66681,25.6666666667,-33.7666666667,RL,-----6--,Point (25.66666666666666785 -33.76666666666666572)
AS,Viet Nam,VNM,VNSGN,Ho Chi Minh City,Ho_chi_minh_city,12782452.75028,106.6666666667,10.7666666667,AI,1-3456--,Point (106.6666666666666714 10.7666666666666675)
AS,Viet Nam,VNM,VNNGH,Nghi Son,Nghi_son,43602.0,105.8333333333,19.3333333333,RL,1-3-----,Point (105.8333333333333286 19.33333333333333215)
AS,Viet Nam,VNM,VNUIH,Qui Nhon,Qui_nhon,418626.0,109.21666666670001,13.7666666667,AI,1-34----,Point (109.21666666666666856 13.7666666666666675)
AS,Viet Nam,VNM,VNVUT,Vung Tau,Vung_tau,21025136.03417,107.0666666667,10.35,RL,1-34----,Point (107.06666666666666288 10.34999999999999964)
SA,Venezuela Bolivarian Republic of,VEN,VEPLA,Pal?a,Palua,15540.0,-62.6666666667,8.35,AI,1--4----,Point (-62.6666666666666643 8.34999999999999964)
,Virgin Islands U.S.,,VICTD,Christiansted Saint Croix,Christiansted_saint_croix,11076.0,-64.75,17.75,AI,1-------,Point (-64.75 17.75)
AS,Viet Nam,VNM,VNC8Q,Chu Lai,Chu_lai,233142.0,108.7,15.4,RL,--3-----,Point (108.70000000000000284 15.40000000000000036)
AS,Viet Nam,VNM,VNDAD,Da Nang,Da_nang,3019963.91676,108.21666666670001,16.0666666667,AI,1--4----,Point (108.21666666666666856 16.06666666666666643)
OC,Australia,AUS,AUDPO,Devonport,Devonport,11960.0,146.35152,-41.17695,AC,1--4----,Point (146.35151999999999362 -41.17694999999999794)
OC,Australia,AUS,AUFRE,Fremantle,Fremantle,4485214.600380001,115.74557,-32.05632,AC,1--4----,Point (115.74557000000000073 -32.05631999999999948)
OC,Australia,AUS,AUGEX,Geelong,Geelong,3084.0,144.36068999999998,-38.14711,AC,1--4----,Point (144.36069000000000528 -38.14710999999999785)
OC,Australia,AUS,AUNTL,Newcastle,Newcastle,69717.0,151.7801,-32.92953,AI,1--4----,Point (151.78010000000000446 -32.92952999999999975)
OC,Australia,AUS,AUBEL,Bell Bay,Bell_bay,537012.66663,146.87,-41.13,AC,123-----,Point (146.87000000000000455 -41.13000000000000256)
OC,Australia,AUS,AUBWT,Burnie,Burnie,54600.0,145.90375,-41.05584,AC,1--4----,Point (145.90375000000000227 -41.05584000000000344)
OC,Australia,AUS,AUCNS,Cairns,Cairns,806.0,145.76613,-16.92366,AC,1--4----,Point (145.76613000000000397 -16.9236600000000017)
OC,Australia,AUS,AUDAM,Dampier,Dampier,2273.75,116.71256000000001,-20.66275,AC,1-------,Point (116.71255999999999631 -20.66274999999999906)
AF,Angola,AGO,AOLAD,Luanda,Luanda,2439604.51885,13.23432,-8.83682,AI,1--45---,Point (13.23432000000000031 -8.83681999999999945)
AF,Angola,AGO,AOMAL,Malongo,Malongo,8707.5,12.1980217978,-5.396406481900001,RQ,0-------,Point (12.19802179783948048 -5.39640648185244931)
AF,Angola,AGO,AOMSZ,Namibe,Namibe,61242.5,12.15222,-15.196110000000001,AI,1--4----,Point (12.1522199999999998 -15.19610999999999912)
AF,Angola,AGO,AOSZA,Soyo,Soyo,79583.4,12.36894,-6.1349,AI,1--4----,Point (12.36894000000000027 -6.13490000000000002)
EU,Albania,ALB,ALDRZ,Durr?s,Durres,134307.0,19.45469,41.32355,RL,1-------,Point (19.45468999999999937 41.32354999999999734)
EU,Albania,ALB,ALDRZ,Durr?s,Durres,134307.0,19.45469,41.32355,RL,1-------,Point (19.45468999999999937 41.32354999999999734)
AF,Angola,AGO,AOCAB,Cabinda,Cabinda,2673.25,12.2,-5.55,AI,1--4----,Point (12.19999999999999929 -5.54999999999999982)
AF,Angola,AGO,AOLOB,Lobito,Lobito,210369.4,13.536010000000001,-12.3644,RL,1---5---,Point (13.53600999999999921 -12.36439999999999984)
,United States,USA,USBAL,Baltimore,Baltimore,6053080.24489,-76.6166666667,39.2833333333,RL,123-----,Point (-76.61666666666666003 39.28333333333333144)
,United States,USA,USACL,Chester,Chester,109902.0,-72.5833333333,43.2666666667,RL,-23-----,Point (-72.5833333333333286 43.26666666666666572)
,United States,USA,USEPI,Eastport,Eastport,28364.0,-67.0004603662,44.9189638978,RN,--3----B,Point (-67.00046036621560575 44.91896389779203247)
,United States,USA,USFEB,Fernandina Beach,Fernandina_beach,2700.0,-81.45,30.6666666667,RL,1-3-----,Point (-81.45000000000000284 30.66666666666666785)
AF,Tanzania United Republic of,TZA,TZDAR,Dar es Salaam,Dar_es_salaam,1404403.56744,39.2833333333,-6.8,AI,12345---,Point (39.28333333333333144 -6.79999999999999982)
EU,Ukraine,UKR,UAILK,Chornomorsk,Chornomorsk,1398819.4999799998,30.6666666667,46.3166666667,AA,123-----,Point (30.66666666666666785 46.31666666666666998)
EU,Ukraine,UKR,UAODS,Odesa,Odesa,2843490.8999799998,30.75,46.5,AA,1234-6--,Point (30.75 46.5)
EU,Ukraine,UKR,UAYUZ,Yuzhnyi,Yuzhnyi,1861645.5,31.0166666667,46.6,AA,1-------,Point (31.01666666666666572 46.60000000000000142)
EU,Turkey,TUR,TRYPO,Yilport,Yilport,253751.33331,29.5333333333,40.7666666667,RL,1-3-----,Point (29.53333333333333499 40.76666666666666572)
,Trinidad and Tobago,TTO,TTPOS,Port-of-Spain,Port_of_spain,1136813.0,-61.5166666667,10.65,AI,1--45---,Point (-61.51666666666666572 10.65000000000000036)
,Trinidad and Tobago,TTO,TTPOS,Port-of-Spain,Port_of_spain,1136813.0,-61.5166666667,10.65,AI,1--45---,Point (-61.51666666666666572 10.65000000000000036)
AS,Taiwan Province of China,TWN,TWTPE,Taipei,Taipei,10793107.07721,121.5166666667,25.0333333333,AI,1--45---,Point (121.51666666666666572 25.03333333333333499)
EU,Turkey,TUR,TRMER,Mersin,Mersin,9929684.13279,34.6333333333,36.7166666667,RL,123-----,Point (34.63333333333333286 36.71666666666666856)
EU,Turkey,TUR,TRSSX,Samsun,Samsun,105306.5,36.3333333333,41.2833333333,AI,1--4----,Point (36.3333333333333357 41.28333333333333144)
EU,Turkey,TUR,TRTEK,Tekirdag,Tekirdag,4941615.37498,27.5166666667,40.9666666667,AI,1234----,Point (27.51666666666666572 40.96666666666666856)
EU,Turkey,TUR,TRTZX,Trabzon,Trabzon,14760.0,39.7333333333,41.0,AI,1-34----,Point (39.73333333333333428 41)
,United States,USA,USSCK,Stockton,Stockton,27774.0,-121.28333333329999,37.95,AI,1-34----,Point (-121.28333333333333144 37.95000000000000284)
,United States,USA,USILM,Wilmington,Wilmington,2749421.5816,-77.9333333333,34.2166666667,AI,1--4----,Point (-77.93333333333333712 34.21666666666666856)
SA,Uruguay,URY,UYPTP,Punta Pereyra,Punta_pereyra,7800.0,-58.0666666667,-34.2333333333,RQ,--3-----,Point (-58.06666666666666998 -34.23333333333333428)
,Saint Vincent and the Grenadines,,VCKTN,Kingstown,Kingstown,225040.4,-61.2166666667,13.1333333333,RL,1--45---,Point (-61.21666666666666856 13.13333333333333286)
,United States,USA,USPEF,Port Everglades,Port_everglades,3155879.73812,-80.1333333333,26.1,RN,1-34----,Point (-80.13333333333333997 26.10000000000000142)
,United States,USA,USNTD,Port Hueneme,Port_hueneme,585733.2,-119.1833333333,34.1333333333,AI,1234-6--,Point (-119.18333333333333712 34.13333333333333286)
,United States,USA,USPME,Port Manatee,Port_manatee,88523.5,-82.55,27.633333333299998,RL,1-3-----,Point (-82.54999999999999716 27.63333333333333286)
,United States,USA,USSAN,San Diego,San_diego,60060.0,-117.15,32.7,AI,1-34----,Point (-117.15000000000000568 32.70000000000000284)
,United States,USA,USNYC,New York,New_york,27396473.86529,-74.0,40.7,AI,12345---,Point (-74 40.70000000000000284)
,United States,USA,USNFF,Norfolk,Norfolk,20779844.87701,-73.2,42.0,RL,--3--6--,Point (-73.20000000000000284 42)
,United States,USA,USKND,Oakland,Oakland,17163885.235120002,-122.22025462959999,37.9329047958,RL,-23-----,Point (-122.22025462962963616 37.93290479582143604)
,United States,USA,USPDP,Philadelphia,Philadelphia,5743740.183583,-75.71666666670001,44.15,RL,-23--6--,Point (-75.71666666666666856 44.14999999999999858)
,United States,USA,USGFP,Gulfport,Gulfport,179625.33335,-89.08490622030001,30.3781564577,RQ,--3--6--,Point (-89.08490622032289252 30.3781564577397809)
,United States,USA,USHNL,Honolulu,Honolulu,808514.83334,-157.85,21.3,AI,1-345---,Point (-157.84999999999999432 21.30000000000000071)
,United States,USA,USHKA,Houston,Houston,14456458.25124,-149.8166666667,61.6333333333,RL,-23--6--,Point (-149.81666666666666288 61.63333333333333286)
,United States,USA,USLGB,Long Beach,Long_beach,12114713.79308,-118.1833333333,33.7666666667,AI,1234----,Point (-118.18333333333333712 33.76666666666666572)
EU,Germany,DEU,DELBC,L?beck,Lubeck,295233.5,10.687289999999999,53.868930000000006,AF,12345---,Point (10.68729000000000084 53.86892999999999887)
EU,Germany,DEU,DETRV,Travem?nde,Travemunde,73746.0,10.8709,53.96304,AF,123-----,Point (10.87090000000000067 53.96303999999999945)
AF,Djibouti,DJI,DJJIB,Djibouti,Djibouti,4852561.03525,43.14503,11.58901,AI,1--45---,Point (43.14502999999999844 11.58901000000000003)
EU,Denmark,DNK,DKAAL,Aalborg,Aalborg,74932.0,9.9187,57.048,AF,12345---,Point (9.91869999999999941 57.04800000000000182)
AF,Cabo Verde,CPV,CVSAR,Sal Rei,Sal_rei,25421.5,-22.91722,16.17611,RQ,0-------,Point (-22.91722000000000037 16.17611000000000132)
EU,Germany,DEU,DEBRE,Bremen,Bremen,197153.699992,8.80717,53.07581999999999,AF,12345---,Point (8.80716999999999928 53.07582000000000022)
EU,Germany,DEU,DEBRV,Bremerhaven,Bremerhaven,21710907.495360002,8.59298,53.53615,AF,1234----,Point (8.59298000000000073 53.53614999999999924)
EU,Germany,DEU,DEHAM,Hamburg,Hamburg,42669313.48604,9.99302,53.55073,AF,12345---,Point (9.99301999999999957 53.5507300000000015)
,Cuba,CUB,CUMOA,Moa,Moa,65431.8,-74.95075,20.65776,AI,---4----,Point (-74.95074999999999932 20.65775999999999968)
,Cuba,CUB,CUSCU,Santiago de Cuba,Santiago_de_cuba,63230.0,-75.82667,20.02083,AI,1--4----,Point (-75.82666999999999291 20.02083000000000013)
AF,Cabo Verde,CPV,CVPAL,Palmeira,Palmeira,13234.0,-22.98348,16.75754,RQ,0-------,Point (-22.98348000000000013 16.75753999999999877)
AF,Cabo Verde,CPV,CVRAI,Praia,Praia,114309.0,-23.512539999999998,14.93152,AI,1--4----,Point (-23.51254000000000133 14.93152000000000079)
SA,Colombia,COL,COBAQ,Barranquilla,Barranquilla,1238849.999953,-74.78132,10.968539999999999,AI,1--45---,Point (-74.7813199999999938 10.96854000000000084)
SA,Colombia,COL,COBUN,Buenaventura,Buenaventura,12125518.60016,-77.03116,3.8801,AI,1--4----,Point (-77.03115999999999985 3.8801000000000001)
SA,Colombia,COL,COCTG,Cartagena,Cartagena,16624367.157963,-75.51444000000001,10.39972,AI,1--4----,Point (-75.51443999999999335 10.3997200000000003)
SA,Colombia,COL,COSMR,Santa Marta,Santa_marta,1906046.566572,-74.19904,11.240789999999999,AI,1--4----,Point (-74.19903999999999655 11.2407900000000005)
EU,Spain,ESP,ESALG,Algeciras,Algeciras,27490011.701929998,-5.4505099999999995,36.13326,AI,1-------,Point (-5.45051000000000041 36.13325999999999993)
EU,Spain,ESP,ESALC,Alicante,Alicante,317642.0,-0.48149,38.34517,AI,12345---,Point (-0.48148999999999997 38.34517000000000309)
EU,Spain,ESP,ESBCN,Barcelona,Barcelona,22873062.028564002,2.15899,41.38879,AI,12345---,Point (2.15899000000000019 41.38879000000000019)
EU,Spain,ESP,ESCAD,Cadiz,Cadiz,248618.5,-6.2891,36.526720000000005,AI,1-------,Point (-6.28910000000000036 36.52671999999999741)
AF,Algeria,DZA,DZMOS,Mostaganem,Mostaganem,20553.75,0.08918,35.93115,QQ,1-------,Point (0.08918 35.93115000000000236)
AF,Algeria,DZA,DZORN,Oran,Oran,210402.15,-0.63588,35.699059999999996,AI,1--4----,Point (-0.63588 35.6990600000000029)
AF,Egypt,EGY,EGEDK,El Dekheila,El_dekheila,265833.75,29.82126,31.13133,RQ,1-------,Point (29.82125999999999877 31.13132999999999839)
AF,Egypt,EGY,EGPSD,Port Said,Port_said,20587604.955879997,32.3019,31.265309999999996,AI,1--4----,Point (32.30190000000000339 31.26530999999999949)
EU,Denmark,DNK,DKSKA,Skagen,Skagen,56420.0,10.58394,57.72093,AF,12------,Point (10.58394000000000013 57.72093000000000274)
,Dominica,DMA,DMRSU,Roseau,Roseau,370965.4,-61.38808,15.301739999999999,AI,1-------,Point (-61.3880800000000022 15.30174000000000056)
,Dominican Republic,DOM,DOBCC,Boca Chica,Boca_chica,333493.3333,-69.6,18.45,AI,1-------,Point (-69.59999999999999432 18.44999999999999929)
,Dominican Republic,DOM,DOPOP,Puerto Plata,Puerto_plata,712651.3333,-70.6884,19.79344,AI,1-------,Point (-70.68840000000000146 19.79344000000000037)
EU,Denmark,DNK,DKEBJ,Esbjerg,Esbjerg,28620.0,8.45187,55.47028,AF,1234----,Point (8.45186999999999955 55.47028000000000247)
EU,Denmark,DNK,DKFRC,Fredericia,Fredericia,245869.0,9.75257,55.56568000000001,AF,12--5---,Point (9.75257000000000041 55.5656800000000004)
EU,Denmark,DNK,DKGRE,Grenaa,Grenaa,16263.0,10.87825,56.415780000000005,AF,123-----,Point (10.87824999999999953 56.41577999999999804)
EU,Denmark,DNK,DKHUN,Hundested,Hundested,16263.0,11.850439999999999,55.963969999999996,AF,123-----,Point (11.85044000000000075 55.96397000000000332)
SA,Brazil,BRA,BRIOS,Ilheus,Ilheus,36877.75,-39.03949,-14.79364,AI,1--4----,Point (-39.03949000000000069 -14.7936399999999999)
SA,Brazil,BRA,BRIBB,Imbituba,Imbituba,378681.33331,-48.67028,-28.24,AI,1-------,Point (-48.67027999999999821 -28.23999999999999844)
SA,Brazil,BRA,BRITJ,Itajai,Itajai,4871215.69989,-48.66194,-26.90778,AI,1--4----,Point (-48.66194000000000131 -26.90777999999999892)
SA,Brazil,BRA,BRMAO,Manaus,Manaus,1385527.97796,-60.025,-3.1019400000000004,AI,1--4----,Point (-60.02499999999999858 -3.10193999999999992)
EU,Bulgaria,BGR,BGVAR,Varna,Varna,147810.0,27.91667,43.21667,AI,1--4----,Point (27.91666999999999987 43.21667000000000058)
AF,Benin,BEN,BJCOO,Cotonou,Cotonou,4812454.66433,2.41833,6.36536,AI,1--45---,Point (2.41833000000000009 6.36535999999999991)
,Bermuda,BMU,BMBDA,Hamilton,Hamilton,13100.0,-64.78303000000001,32.2949,AI,1--45---,Point (-64.78302999999999656 32.29489999999999839)
SA,Brazil,BRA,BRFOR,Fortaleza,Fortaleza,278482.75,-38.54306,-3.7172199999999997,AI,1--4----,Point (-38.54305999999999699 -3.71722000000000019)
,Aruba,ABW,AWORJ,Oranjestad,Oranjestad,721990.3,-70.02703000000001,12.52398,AI,1---5---,Point (-70.02702999999999633 12.52397999999999989)
,Barbados,BRB,BBBGI,Bridgetown,Bridgetown,687251.06669,-59.62021,13.107320000000001,AI,1--45---,Point (-59.62021000000000015 13.10731999999999964)
AS,Bangladesh,BGD,BDMGL,Mongla,Mongla,65143.0,89.61095,22.47223,RQ,1-------,Point (89.61095000000000255 22.47222999999999971)
EU,Bulgaria,BGR,BGBOJ,Burgas,Burgas,535001.99998,27.467809999999997,42.50606,AC,1-------,Point (27.46781000000000006 42.50605999999999796)
OC,Australia,AUS,AUPBT,Port Botany,Port_botany,47151.0,151.22277,-33.974470000000004,AC,123-----,Point (151.22276999999999703 -33.97446999999999662)
OC,Australia,AUS,AUPKL,Port Kembla,Port_kembla,33267.0,150.9012,-34.4818,AC,1--4----,Point (150.90119999999998868 -34.48179999999999978)
OC,Australia,AUS,AUTSV,Townsville,Townsville,227206.583318,146.80569,-19.266389999999998,AI,1--4----,Point (146.80568999999999846 -19.26639000000000124)
OC,Australia,AUS,AUWEI,Weipa,Weipa,806.0,141.87883,-12.623460000000001,AC,1--4----,Point (141.87882999999999356 -12.62345999999999968)
OC,Cook Islands,COK,CKAIT,Aitutaki,Aitutaki,40320.0,-159.79293,-18.85195,AI,1--45---,Point (-159.79293000000001257 -18.85194999999999865)
OC,Cook Islands,COK,CKRAR,Rarotonga,Rarotonga,41157.0,-159.77545,-21.2075,AI,1--45---,Point (-159.77545000000000641 -21.20749999999999957)
AF,Cameroon,CMR,CMDLA,Douala,Douala,1089387.80006,9.70428,4.04827,AI,1--45---,Point (9.70428000000000068 4.04826999999999959)
AF,Cameroon,CMR,CMKBI,Kribi,Kribi,1338743.54556,9.90765,2.93725,AI,1--4----,Point (9.90765000000000029 2.93725000000000014)
,Canada,CAN,CAPRR,Prince Rupert,Prince_rupert,2510218.74986,-130.32098,54.31507,AS,1--4----,Point (-130.32097999999999161 54.31506999999999863)
,Canada,CAN,CASQA,Squamish,Squamish,9606.0,-122.95396000000001,50.11817,AS,1--4----,Point (-122.95395999999999503 50.11816999999999922)
,Canada,CAN,CATOR,Toronto,Toronto,5720.0,-79.4163,43.700109999999995,AS,1--45---,Point (-79.41630000000000678 43.70011000000000223)
,Canada,CAN,CAVAN,Vancouver,Vancouver,11959843.503789999,-123.11934,49.24966,AS,1--45---,Point (-123.11933999999999401 49.24965999999999866)
,Belize,BLZ,BZBZE,Belize City,Belize_city,469495.0,-88.19756,17.49952,AI,1--45---,Point (-88.19755999999999574 17.49952000000000041)
,Canada,CAN,CAHAL,Halifax,Halifax,4454972.467041001,-63.57291,44.6464,AS,1--4----,Point (-63.57291000000000025 44.64639999999999986)
,Canada,CAN,CAMTR,Montreal,Montreal,2304234.075,-73.58781,45.50884,AS,1--45---,Point (-73.58781000000000461 45.50883999999999929)
,Canada,CAN,CANWE,New Westminster,New_westminster,27774.0,-122.91091999999999,49.20678,AS,1-------,Point (-122.91092000000000439 49.20678000000000196)
SA,Brazil,BRA,BRNAT,Natal,Natal,241605.0,-35.20944,-5.795,AI,1--4----,Point (-35.20944000000000074 -5.79499999999999993)
SA,Brazil,BRA,BRRIG,Rio Grande,Rio_grande,10184119.863510001,-43.18223,-22.90642,AI,1--4----,Point (-43.18222999999999701 -22.90642000000000067)
SA,Brazil,BRA,BRSSA,Salvador,Salvador,8800539.57322,-38.51083,-12.971110000000001,AI,1--4----,Point (-38.51082999999999856 -12.97110999999999947)
SA,Brazil,BRA,BRSUA,Suape,Suape,5878585.390430001,-38.62083,-12.74083,RQ,1-------,Point (-38.62082999999999799 -12.74083000000000077)
,Honduras,HND,HNPCR,Puerto Cort?s,Puerto_cortes,1674222.333392,-87.92968,15.82562,AI,1---5---,Point (-87.92968000000000472 15.82562000000000069)
,Honduras,HND,HNSLO,San Lorenzo,San_lorenzo,67860.0,-87.44722,13.424170000000002,RQ,1-------,Point (-87.44722000000000151 13.42417000000000016)
,Haiti,HTI,HTPAP,Port-au-Prince,Port_au_prince,783664.91664,-72.33881,18.54349,AI,1--45---,Point (-72.33880999999999517 18.54348999999999847)
AS,Indonesia,IDN,IDBDJ,Banjarmasin,Banjarmasin,17848.0,114.59075,-3.31987,AI,1--4----,Point (114.59074999999999989 -3.31986999999999988)
,Guatemala,GTM,GTPBR,Puerto Barrios,Puerto_barrios,547993.333366,-88.59444,15.72778,AI,1--4----,Point (-88.59444000000000585 15.72777999999999921)
SA,Guyana,GUY,GYGEO,Georgetown,Georgetown,428041.333322,-58.155269999999994,6.80448,AI,1--45---,Point (-58.15527000000000157 6.80447999999999986)
AS,Hong Kong,HKG,HKHKG,Hong Kong,Hong_kong,80530648.252739,114.17468999999998,22.27832,AI,1--45---,Point (114.17468999999999824 22.27832000000000079)
,Honduras,HND,HNPCA,Puerto Castilla,Puerto_castilla,75387.0,-85.96667,16.01667,RQ,1-------,Point (-85.96666999999999348 16.01667000000000129)
AF,Gambia,GMB,GMBJL,Banjul,Banjul,184275.0,-16.57803,13.452739999999999,AI,1--45---,Point (-16.57802999999999827 13.45274000000000036)
AF,Guinea,GIN,GNCKY,Conakry,Conakry,676607.9047600001,-13.67729,9.53795,AI,1--45---,Point (-13.67728999999999928 9.53795000000000037)
AF,Equatorial Guinea,GNQ,GQBSG,Bata,Bata,454067.0,9.76582,1.86391,RQ,1--45---,Point (9.76581999999999972 1.86390999999999996)
AF,Equatorial Guinea,GNQ,GQSSG,Malabo,Malabo,133795.9,8.78166,3.75578,AI,1--4----,Point (8.78166000000000047 3.75578000000000012)
AF,Ghana,GHA,GHTKD,Takoradi,Takoradi,343811.4,-1.7602900000000001,4.89816,AI,1--45---,Point (-1.76028999999999991 4.89815999999999985)
AF,Ghana,GHA,GHTEM,Tema,Tema,7407893.36449,-0.016569999999999998,5.6698,QQ,1-------,Point (-0.01657 5.6698000000000004)
EU,Gibraltar,GIB,GIGIB,Gibraltar,Gibraltar,67977.0,-5.35257,36.144740000000006,AI,1--45---,Point (-5.35257000000000005 36.14473999999999876)
,Greenland,GRL,GLJHS,Sisimiut (Holsteinsborg),Sisimiut_holsteinsborg,23426.0,-53.6735,66.93946,AI,1--4----,Point (-53.6734999999999971 66.93945999999999685)
AS,Indonesia,IDN,IDTLI,Tolitoli,Tolitoli,3328.0,121.1679,1.2718,AI,1--4----,Point (121.16790000000000305 1.27180000000000004)
EU,Ireland,IRL,IEORK,Cork,Cork,316459.0,-8.47061,51.89797,AF,1--45---,Point (-8.47061000000000064 51.89797000000000082)
EU,Ireland,IRL,IEDUB,Dublin,Dublin,453417.25,-6.24889,53.333059999999996,AF,12-45---,Point (-6.24889000000000028 53.33306000000000324)
AS,Israel,ISR,ILASH,Ashdod,Ashdod,5463055.08308,34.64966,31.79213,QQ,1-------,Point (34.64965999999999724 31.79213000000000022)
AS,Indonesia,IDN,IDPNK,Pontianak Kalimantan,Pontianak_kalimantan,35776.0,109.325,-0.031939999999999996,AI,1--45---,Point (109.32500000000000284 -0.03194)
AS,Indonesia,IDN,IDSRI,Samarinda Kalimantan,Samarinda_kalimantan,34320.0,117.14583,-0.49167,AI,1--4----,Point (117.14583000000000368 -0.49167)
AS,Indonesia,IDN,IDSOQ,Sorong,Sorong,125268.0,131.26103999999998,-0.87956,AI,1--4----,Point (131.26104000000000838 -0.87956000000000001)
AS,Indonesia,IDN,IDTRK,Tarakan Kalimantan,Tarakan_kalimantan,5213.0,117.59151999999999,3.3133199999999996,QQ,1-------,Point (117.59152000000000271 3.31332000000000004)
AS,Indonesia,IDN,IDLUW,Luwuk,Luwuk,720.0,122.7875,-0.9516,AI,1--4----,Point (122.78749999999999432 -0.9516)
AS,Indonesia,IDN,IDMES,Medan Sumatra,Medan_sumatra,45136.0,98.66667,3.58333,AI,1--45---,Point (98.66666999999999632 3.58333000000000013)
AS,Indonesia,IDN,IDPLM,Palembang Sumatra,Palembang_sumatra,106646.75,104.7458,-2.91673,AI,1--4----,Point (104.74580000000000268 -2.91672999999999982)
AS,Indonesia,IDN,IDPNJ,Panjang,Panjang,1532041.4998899999,100.6199,0.3087,RQ,1-------,Point (100.61990000000000123 0.30869999999999997)
AS,Indonesia,IDN,IDBLW,Belawan Sumatra,Belawan_sumatra,494328.25003,98.6832,3.7755,QQ,1-------,Point (98.68319999999999936 3.77550000000000008)
AS,Indonesia,IDN,IDBIT,Bitung Sulawesi,Bitung_sulawesi,215154.58334,125.12823999999999,1.44059,QQ,1-------,Point (125.12824000000000524 1.44059000000000004)
AS,Indonesia,IDN,IDGTO,Gorontalo Sulawesi,Gorontalo_sulawesi,42718.00001,123.3908,-0.8985,AI,1--4----,Point (123.3907999999999987 -0.89849999999999997)
AS,Indonesia,IDN,IDKDI,Kendari Sulawesi,Kendari_sulawesi,7988.5,122.51507,-3.9778,AI,1--4----,Point (122.51506999999999437 -3.97779999999999978)
EU,Finland,FIN,FIHEL,Helsinki (Helsingfors),Helsinki_helsingfors,745328.99995,24.93545,60.16952,AI,1-------,Point (24.93544999999999945 60.16951999999999856)
EU,Finland,FIN,FIVKO,Valko (Valkom),Valko_valkom,84688.5,26.246640000000003,60.41392,AC,1-3-----,Point (26.2466399999999993 60.4139199999999974)
EU,Finland,FIN,FIVKO,Valkom (Valko),Valkom_valko,84688.5,26.246640000000003,60.41392,AC,1-3-----,Point (26.2466399999999993 60.4139199999999974)
AF,Gabon,GAB,GALBV,Libreville,Libreville,414222.00003,9.453560000000001,0.39241,AI,1--45---,Point (9.45355999999999952 0.39240999999999998)
EU,Spain,ESP,ESVGO,Vigo,Vigo,929140.333324,-8.72264,42.232820000000004,AI,1--4----,Point (-8.72264000000000017 42.2328199999999967)
EU,Finland,FIN,FIHKO,Hang? (Hanko),Hango_hanko,134144.0,22.95,59.833330000000004,AI,1-------,Point (22.94999999999999929 59.83332999999999657)
EU,Finland,FIN,FIHKO,Hanko (Hang?),Hanko_hango,134144.0,22.95,59.833330000000004,AI,1-------,Point (22.94999999999999929 59.83332999999999657)
EU,Finland,FIN,FIHEL,Helsingfors (Helsinki),Helsingfors_helsinki,745328.99995,24.93545,60.16952,AI,1-------,Point (24.93544999999999945 60.16951999999999856)
EU,Spain,ESP,ESSDR,Santander,Santander,23634.0,-3.80444,43.46472,AI,1234----,Point (-3.80444000000000004 43.4647199999999998)
EU,Spain,ESP,ESSVQ,Sevilla,Sevilla,49842.0,-5.97317,37.38283,AI,12345---,Point (-5.97316999999999965 37.38282999999999845)
EU,Spain,ESP,ESTAR,Tarragona,Tarragona,977262.0,1.25,41.11667,AI,1234----,Point (1.25 41.11666999999999916)
EU,Spain,ESP,ESVLC,Valencia,Valencia,32174699.419023998,-0.37739,39.46975,AI,12345---,Point (-0.37739 39.46974999999999767)
EU,Spain,ESP,ESCEU,Ceuta,Ceuta,45500.0,-5.3204199999999995,35.88919,AI,1-------,Point (-5.32042000000000037 35.88918999999999926)
EU,Spain,ESP,ESHUV,Huelva,Huelva,191763.0,-6.94004,37.26638,AI,123-----,Point (-6.94003999999999976 37.26637999999999806)
EU,Spain,ESP,ESFUE,Puerto del Rosario-Fuerteventura,Puerto_del_rosario_fuerteventura,219128.0,-13.862720000000001,28.50038,AI,1--4----,Point (-13.86271999999999949 28.50037999999999982)
EU,Spain,ESP,ESSCT,Santa Cruz de Tenerife,Santa_cruz_de_tenerife,640000.0,-16.254620000000003,28.46824,AI,1---5---,Point (-16.25461999999999918 28.46824000000000154)
EU,United Kingdom,GBR,GBTIL,Tilbury,Tilbury,1408139.0,0.35856,51.46248,AF,1-------,Point (0.35855999999999999 51.46247999999999934)
,Grenada,GRD,GDSTG,Saint George's,Saint_georges,454265.06668999995,-61.75226,12.05288,AI,1-------,Point (-61.75225999999999971 12.05288000000000004)
AS,Georgia,GEO,GEBUS,Batumi,Batumi,176479.99998,41.63392,41.64228,AI,1--4----,Point (41.63392000000000337 41.64227999999999952)
AS,Georgia,GEO,GEPTI,Poti,Poti,241566.0,41.673840000000006,42.142720000000004,QQ,1-------,Point (41.67383999999999844 42.14271999999999707)
EU,United Kingdom,GBR,GBPME,Portsmouth,Portsmouth,142997.400009,-1.09125,50.79899,AF,1--4----,Point (-1.09125000000000005 50.79899000000000342)
EU,United Kingdom,GBR,GBSCR,Scrabster,Scrabster,9204.0,-3.54627,58.61277,AF,1-------,Point (-3.54626999999999981 58.61276999999999759)
EU,United Kingdom,GBR,GBSHS,Sheerness,Sheerness,21112.0,0.76252,51.44042,AF,1-------,Point (0.76251999999999998 51.44042000000000314)
EU,United Kingdom,GBR,GBSOU,Southampton,Southampton,12580879.0978,-1.40428,50.90395,AF,1--4----,Point (-1.40427999999999997 50.90395000000000181)
EU,United Kingdom,GBR,GBFXT,Felixstowe,Felixstowe,23949484.1807,1.3511,51.96375,AF,1-------,Point (1.35109999999999997 51.96374999999999744)
EU,United Kingdom,GBR,GBFOY,Fowey,Fowey,4941.0,-4.6386,50.33634,AF,1-------,Point (-4.63860000000000028 50.33633999999999986)
EU,United Kingdom,GBR,GBHRW,Harwich,Harwich,61540.0,1.28437,51.94194,AF,1-------,Point (1.28437000000000001 51.94194000000000244)
EU,United Kingdom,GBR,GBPOO,Poole,Poole,8502.0,-1.98458,50.714290000000005,AF,1-------,Point (-1.98458000000000001 50.71428999999999832)
AF,Gabon,GAB,GAPOG,Port Gentil,Port_gentil,148566.9,8.78151,-0.71933,AI,1--45---,Point (8.78151000000000082 -0.71933000000000002)
EU,United Kingdom,GBR,GBBLY,Blyth,Blyth,13208.0,-1.5085600000000001,55.12708000000001,AF,1-------,Point (-1.5085599999999999 55.12707999999999942)
EU,United Kingdom,GBR,GBBRS,Bristol,Bristol,213286.66665,-2.59665,51.45523,AF,1234----,Point (-2.5966499999999999 51.45523000000000025)
EU,United Kingdom,GBR,GBDVR,Dover,Dover,17290.0,1.31257,51.12598,AF,1---5---,Point (1.31257000000000001 51.12597999999999843)
AS,Japan,JPN,JPOIT,Oita,Oita,336869.0,131.6,33.23333,AF,1--4----,Point (131.59999999999999432 33.23333000000000226)
AS,Japan,JPN,JPOMZ,Omaezaki,Omaezaki,642421.0,138.21934,34.59882,AF,1-------,Point (138.21933999999998832 34.59882000000000346)
AS,Japan,JPN,JPONA,Onahama,Onahama,204940.6667,140.9,36.95,AF,1-------,Point (140.90000000000000568 36.95000000000000284)
AS,Japan,JPN,JPOTK,Otake,Otake,36348.0,132.22063,34.20754,AF,1-------,Point (132.22062999999999988 34.20754000000000161)
AS,Japan,JPN,JPNGO,Nagoya Aichi,Nagoya_aichi,14485316.083789002,136.90641000000002,35.181470000000004,AF,1--45---,Point (136.90640999999999394 35.18146999999999736)
AS,Japan,JPN,JPNAH,Naha Okinawa,Naha_okinawa,770354.0,127.68333,26.21667,AF,1--45---,Point (127.68332999999999799 26.21667000000000058)
AS,Japan,JPN,JPNAO,Naoetsu,Naoetsu,166443.33335,138.25,37.18333,AF,1-------,Point (138.25 37.18332999999999799)
AS,Japan,JPN,JPKIJ,Niigata,Niigata,632488.99997,139.00589,37.88637,AF,1-------,Point (139.00588999999999373 37.88636999999999944)
AS,Japan,JPN,JPMII,Miike Fukuoka,Miike_fukuoka,16640.0,130.47791,33.05207,AF,1-------,Point (130.47791000000000849 33.0520700000000005)
AS,Japan,JPN,JPMIZ,Mizushima,Mizushima,727415.0,133.73896000000002,34.5298,AF,1-------,Point (133.73895999999999162 34.5298000000000016)
AS,Japan,JPN,JPMUR,Muroran,Muroran,115517.99997,140.98806000000002,42.31722,AF,1-------,Point (140.98805999999999017 42.31721999999999895)
AS,Japan,JPN,JPNGS,Nagasaki,Nagasaki,44460.0,129.88333,32.75,AF,1--4----,Point (129.88333000000000084 32.75)
AS,Japan,JPN,JPKCZ,Kochi,Kochi,97578.0,133.53333,33.55,AF,1--4----,Point (133.53333000000000652 33.54999999999999716)
AS,Japan,JPN,JPKMJ,Kumamoto,Kumamoto,44460.0,130.69181,32.805890000000005,AF,1--4----,Point (130.69181000000000381 32.805889999999998)
AS,Japan,JPN,JPMAI,Maizuru,Maizuru,113464.0,135.33333000000002,35.45,AF,1-------,Point (135.33332999999998947 35.45000000000000284)
AS,Japan,JPN,JPMYJ,Matsuyama,Matsuyama,213629.0,132.76574,33.83916,AF,1--4----,Point (132.76573999999999387 33.83915999999999968)
AS,Japan,JPN,JPWAK,Wakayama,Wakayama,63765.0,135.16666999999998,34.23333,AF,1-------,Point (135.16667000000001053 34.23333000000000226)
AS,Japan,JPN,JPYAT,Yatsushiro,Yatsushiro,61100.0,130.59951999999998,32.50439,AF,1-------,Point (130.59952000000001249 32.50439000000000078)
AS,Japan,JPN,JPYKK,Yokkaichi,Yokkaichi,3523652.1667400002,136.61667,34.96667,AF,1-------,Point (136.61666999999999916 34.96667000000000058)
AF,Kenya,KEN,KEMBA,Mombasa,Mombasa,2290456.63883,39.66359,-4.05466,AI,1--45---,Point (39.66358999999999924 -4.05466000000000015)
AS,Japan,JPN,JPTMK,Tomakomai,Tomakomai,929244.3333200001,141.60333,42.63694,AF,1--4----,Point (141.6033299999999997 42.63694000000000273)
AS,Japan,JPN,JPTHS,Toyohashi,Toyohashi,181584.0,137.38333,34.76667,AF,1-------,Point (137.38333000000000084 34.76666999999999774)
AS,Japan,JPN,JPTRG,Tsuruga,Tsuruga,121550.0,136.0558,35.64547,AF,1-------,Point (136.05580000000000496 35.6454700000000031)
AS,Japan,JPN,JPUBJ,Ube,Ube,22490.0,131.25111,33.943059999999996,AF,1--4----,Point (131.25111000000001127 33.94306000000000267)
AS,Japan,JPN,JPSMZ,Shimizu,Shimizu,5351577.99976,142.88472,43.00611,AF,1-------,Point (142.88471999999998729 43.00610999999999962)
AS,Japan,JPN,JPTAK,Takamatsu,Takamatsu,188292.0,134.05,34.33333,AF,1--4----,Point (134.05000000000001137 34.33332999999999657)
AS,Japan,JPN,JPTKS,Tokushima,Tokushima,148044.0,134.56667,34.06667,AF,1--4----,Point (134.56666999999998779 34.06667000000000201)
AS,Japan,JPN,JPTKY,Tokuyama,Tokuyama,456888.25,131.81667,34.05,AF,1-------,Point (131.81666999999998779 34.04999999999999716)
AS,Japan,JPN,JPOTR,Otaru,Otaru,78000.0,141.00222,43.189440000000005,AF,1--4----,Point (141.00221999999999412 43.18943999999999761)
AS,Japan,JPN,JPSMN,Sakaiminato,Sakaiminato,329679.99997,133.23094,35.53774,AF,1-------,Point (133.23094000000000392 35.53773999999999944)
AS,Japan,JPN,JPSKT,Sakata,Sakata,421338.66667,139.855,38.91667,AF,1-------,Point (139.85499999999998977 38.91667000000000343)
AS,Japan,JPN,JPSBS,Shibushi,Shibushi,490971.0,131.10114,31.476,AF,1-------,Point (131.10113999999998668 31.47599999999999909)
EU,Italy,ITA,ITPOZ,Pozzuoli,Pozzuoli,42042.0,14.0952,40.84394,AI,1-------,Point (14.09520000000000017 40.84394000000000347)
EU,Italy,ITA,ITRAN,Ravenna,Ravenna,1216610.5,12.201210000000001,44.41344,AI,1-------,Point (12.20120999999999967 44.41344000000000136)
EU,Italy,ITA,ITSAL,Salerno,Salerno,2238415.25,14.79328,40.67545,AI,1-3-----,Point (14.79327999999999932 40.67544999999999789)
EU,Italy,ITA,ITTRS,Trieste,Trieste,4531748.0,13.776779999999999,45.64953,AI,1--4----,Point (13.77678000000000047 45.64952999999999861)
EU,Iceland,ISL,ISGRF,Grundarfj?rdur,Grundarfjordur,280000.5,-23.26313,64.92426999999999,AC,1-------,Point (-23.26313000000000031 64.92427000000000703)
EU,Iceland,ISL,ISRFJ,Reydarfj?rdur,Reydarfjordur,157748.5,-14.21832,65.03164,AC,1-------,Point (-14.21832000000000029 65.03163999999999589)
EU,Italy,ITA,ITMDC,Marina di Carrara,Marina_di_carrara,164793.0,10.04142,44.03837,AI,1-------,Point (10.04142000000000046 44.03837000000000046)
EU,Italy,ITA,ITMNF,Monfalcone,Monfalcone,23587.5,13.53292,45.804629999999996,AI,1-------,Point (13.53292000000000073 45.80463000000000306)
AS,India,IND,INMUN,Mundra,Mundra,19811914.3373,69.7219,22.83918,AA,1-------,Point (69.72190000000000509 22.83917999999999893)
AS,India,IND,INIXZ,Port Blair,Port_blair,14150.5,92.74635,11.66613,AA,1--4----,Point (92.74635000000000673 11.66613000000000078)
AS,Iraq,IRQ,IQALF,Abu Al Fulus,Abu_al_fulus,14131.0,48.04246,30.44783,RQ,1-------,Point (48.04245999999999839 30.44782999999999973)
AS,Iraq,IRQ,IQBSR,Basra,Basra,7524.0,47.7804,30.50852,AI,1-------,Point (47.7804000000000002 30.50852000000000075)
AS,India,IND,INENR,Ennore,Ennore,263657.33332,80.32835,13.24751,AA,1-------,Point (80.32835000000000036 13.24751000000000012)
AS,India,IND,INHAL,Haldia,Haldia,182909.25,88.10975,22.06046,AA,1-------,Point (88.10975000000000534 22.06045999999999907)
AS,India,IND,INKRI,Krishnapatnam,Krishnapatnam,2290663.66648,80.12388,14.288739999999999,AA,1-------,Point (80.12387999999999977 14.28874000000000066)
AS,India,IND,INIXE,Mangalore,Mangalore,139500.0,74.85603,12.91723,AA,1--4----,Point (74.85603000000000407 12.91722999999999999)
AS,Japan,JPN,JPIWK,Iwakuni,Iwakuni,248404.0,132.22,34.16297,AF,1-------,Point (132.21999999999999886 34.16297000000000139)
AS,Japan,JPN,JPKNZ,Kanazawa,Kanazawa,500785.99997,136.61667,36.6,AF,1-------,Point (136.61666999999999916 36.60000000000000142)
AS,Japan,JPN,JPKSM,Kashima Ibaraki,Kashima_ibaraki,103584.0,140.64473999999998,35.96536,AF,1-------,Point (140.64474000000001297 35.96535999999999689)
AS,Japan,JPN,JPKWS,Kawasaki,Kawasaki,1377583.99995,139.71722,35.520559999999996,AF,1-------,Point (139.71721999999999753 35.52056000000000324)
AS,Japan,JPN,JPHTC,Hitachi,Hitachi,110110.0,140.65,36.6,AF,1-------,Point (140.65000000000000568 36.60000000000000142)
AS,Japan,JPN,JPHSM,Hososhima,Hososhima,354289.0,131.66666999999998,32.43333,AF,1-------,Point (131.66667000000001053 32.43332999999999799)
AS,Japan,JPN,JPIMB,Imabari,Imabari,83772.0,133.00023000000002,34.070009999999996,AF,1-------,Point (133.00022999999998774 34.07001000000000346)
AS,Japan,JPN,JPIMI,Imari,Imari,232752.0,129.87877,33.27362,AF,1-------,Point (129.87877000000000294 33.27362000000000108)
AS,Japan,JPN,JPCHB,Chiba,Chiba,607568.0,140.11667,35.6,AF,1-------,Point (140.11666999999999916 35.60000000000000142)
AS,Japan,JPN,JPFKY,Fukuyama Hiroshima,Fukuyama_hiroshima,508612.0,133.36667,34.48333,AF,1-------,Point (133.36666999999999916 34.48333000000000226)
AS,Japan,JPN,JPHHE,Hachinohe,Hachinohe,291243.33335,141.5,40.5,AF,1--4----,Point (141.5 40.5)
AS,Japan,JPN,JPHIJ,Hiroshima,Hiroshima,658970.0,132.45,34.4,AF,1--4----,Point (132.44999999999998863 34.39999999999999858)
,Jamaica,JAM,JMKIN,Kingston,Kingston,8626072.54491,-76.79358,17.997020000000003,AI,1--45---,Point (-76.79358000000000573 17.99701999999999913)
,Jamaica,JAM,JMMBJ,Montego Bay,Montego_bay,628021.3333,-77.91883,18.47116,AI,1--4----,Point (-77.91882999999999981 18.47116000000000113)
AS,Japan,JPN,JPABU,Aburatsu,Aburatsu,53352.0,144.26971,44.02127,AF,1-------,Point (144.26971000000000345 44.02127000000000123)
AS,Japan,JPN,JPAXT,Akita,Akita,278377.66667,140.11667,39.71667,AF,1--4----,Point (140.11666999999999916 39.71667000000000058)
AS,Oman,OMN,OMSOH,Sohar,Sohar,5253518.9085,56.70936999999999,24.34745,QQ,1-------,Point (56.70936999999999983 24.34744999999999848)
,Panama,PAN,PAPAM,Almirante,Almirante,265850.0,-82.4018,9.30091,AI,1-------,Point (-82.40179999999999438 9.30091000000000001)
,Panama,PAN,PABLB,Balboa,Balboa,13017890.895410001,-79.56671999999999,8.948139999999999,AI,1-------,Point (-79.56672000000000367 8.94814000000000043)
,Panama,PAN,PACSO,Coco Solo,Coco_solo,340795.0,-79.88168,9.37091,RQ,--3-----,Point (-79.88168000000000291 9.3709100000000003)
AF,Nigeria,NGA,NGPHC,Port Harcourt,Port_harcourt,46634.9,7.0134,4.777419999999999,AI,1--4----,Point (7.01339999999999986 4.77742000000000022)
,Nicaragua,NIC,NICIO,Corinto,Corinto,510767.4,-87.17304,12.4825,AI,1---5---,Point (-87.1730400000000003 12.48249999999999993)
EU,Norway,NOR,NOGJM,Gjemnes,Gjemnes,135486.0,8.086039999999999,62.89225,AI,1-------,Point (8.08604000000000056 62.8922499999999971)
AS,Oman,OMN,OMSLL,Salalah,Salalah,20488113.65607,54.092369999999995,17.01505,AI,1--4----,Point (54.09237000000000251 17.01504999999999868)
,Namibia,,NAWVB,Walvis Bay,Walvis_bay,2144542.86661,14.505279999999999,-22.9575,QQ,1-------,Point (14.50528000000000084 -22.95749999999999957)
AF,Nigeria,NGA,NGAPP,Apapa,Apapa,1959193.73402,3.35901,6.4488,QQ,1-------,Point (3.35901000000000005 6.44880000000000031)
AF,Nigeria,NGA,NGCBQ,Calabar,Calabar,7150.0,8.32695,4.9589300000000005,AI,1--4----,Point (8.32695000000000007 4.95892999999999962)
AF,Nigeria,NGA,NGLOS,Lagos,Lagos,1767326.6668200002,3.3946699999999996,6.45407,AI,1--45---,Point (3.39467000000000008 6.45406999999999975)
AF,Mozambique,MOZ,MZBEW,Beira,Beira,862537.0000299999,34.83889,-19.84361,AI,1--45---,Point (34.83888999999999925 -19.84361000000000175)
AF,Mozambique,MOZ,MZMPM,Maputo,Maputo,871116.20005,32.583220000000004,-25.965529999999998,AI,1--45---,Point (32.58321999999999719 -25.96553000000000111)
AF,Mozambique,MOZ,MZMNC,Nacala,Nacala,668056.99998,40.68538,-14.562570000000001,AI,1--4----,Point (40.6853800000000021 -14.56256999999999913)
AF,Mozambique,MOZ,MZUEL,Quelimane,Quelimane,8034.0,36.888329999999996,-17.878610000000002,AI,1--4----,Point (36.88833000000000339 -17.87860999999999834)
OC,Papua New Guinea,PNG,PGRAB,Rabaul,Rabaul,115172.0,152.16297,-4.2003699999999995,AI,1--4----,Point (152.16297000000000139 -4.20037000000000038)
OC,Papua New Guinea,PNG,PGWWK,Wewak,Wewak,43795.0,143.63228999999998,-3.54964,AI,1--4----,Point (143.63229000000001179 -3.54964000000000013)
AS,Philippines,PHL,PHBCD,Bacolod Negros,Bacolod_negros,18806.0,122.95,10.66667,AI,1--4----,Point (122.95000000000000284 10.66666999999999987)
AS,Philippines,PHL,PHCGY,Cagayan de Oro Mindanao,Cagayan_de_oro_mindanao,1437089.16676,124.64721999999999,8.48222,AI,1--4----,Point (124.64722000000000435 8.48221999999999987)
OC,Papua New Guinea,PNG,PGBUA,Buka,Buka,15808.0,154.67098000000001,-5.4326099999999995,AI,1--4----,Point (154.67097999999998592 -5.43261000000000038)
OC,Papua New Guinea,PNG,PGKIM,Kimbe,Kimbe,99364.0,150.13766,-5.55085,QQ,1-------,Point (150.137660000000011 -5.55084999999999962)
OC,Papua New Guinea,PNG,PGLAE,Lae,Lae,836183.9166529999,146.99611000000002,-6.723330000000001,AI,1--4----,Point (146.99610999999998739 -6.72332999999999981)
OC,Papua New Guinea,PNG,PGPOM,Port Moresby,Port_moresby,402247.083312,147.15089,-9.47723,AI,1--4----,Point (147.15089000000000397 -9.47723000000000049)
SA,Peru,PER,PEMRI,Matarani,Matarani,98962.5,-72.10563,-16.996389999999998,AI,1-------,Point (-72.105630000000005 -16.99639000000000166)
SA,Peru,PER,PEPAI,Paita,Paita,1763103.41208,-81.11444,-5.089169999999999,AI,1-------,Point (-81.11444000000000187 -5.08917000000000019)
SA,Peru,PER,PEPIO,Pisco,Pisco,121628.0,-76.20538,-13.710289999999999,AI,1--4----,Point (-76.20538000000000523 -13.71029000000000053)
OC,Papua New Guinea,PNG,PGGUR,Alotau,Alotau,15808.0,150.45741999999998,-10.31509,AI,1--4----,Point (150.45742000000001326 -10.31508999999999965)
,Panama,PAN,PAMIT,Manzanillo,Manzanillo,13509667.606660001,-81.16667,7.53667,AI,123-----,Point (-81.16666999999999632 7.53666999999999998)
SA,Peru,PER,PECLL,Callao,Callao,15247664.791889999,-77.11814,-12.05659,AI,1-------,Point (-77.1181399999999968 -12.05658999999999992)
SA,Peru,PER,PEILQ,Ilo,Ilo,83616.0,-71.34108,-17.63185,AI,1--4----,Point (-71.34108000000000516 -17.63185000000000002)
SA,Peru,PER,PEIQT,Iquitos,Iquitos,9675.0,-73.25383000000001,-3.7491199999999996,AI,1--4----,Point (-73.25382999999999356 -3.74912000000000001)
AF,Madagascar,MDG,MGMJN,Majunga (Mahajanga),Majunga_mahajanga,125324.0,46.31667,-15.71667,AI,1--4----,Point (46.31667000000000201 -15.71667000000000058)
AF,Madagascar,MDG,MGTMM,Tamatave (Toamasina),Tamatave_toamasina,396084.0,49.40234,-18.1492,AI,1--45---,Point (49.40234000000000236 -18.14920000000000044)
AF,Madagascar,MDG,MGTLE,Tulear (Toliara),Tulear_toliara,19864.0,43.66667,-23.35,AI,1--4----,Point (43.66667000000000343 -23.35000000000000142)
OC,Marshall Islands,,MHKWA,Kwajalein,Kwajalein,48316.66667,167.73918999999998,8.77479,AI,---4----,Point (167.73919000000000779 8.77478999999999942)
AF,Morocco,MAR,MAAGA,Agadir,Agadir,593660.5713899999,-9.59815,30.42018,AI,1--4----,Point (-9.5981500000000004 30.42017999999999844)
AF,Morocco,MAR,MANDR,Nador,Nador,45500.0,-2.93352,35.16813,AI,1-------,Point (-2.93352000000000013 35.16812999999999789)
AF,Morocco,MAR,MAPTM,Tanger Med,Tanger_med,29213268.30742,-5.56323,35.82674,AI,123-----,Point (-5.5632299999999999 35.82674000000000092)
AF,Madagascar,MDG,MGDIE,Antsiranana,Antsiranana,113468.0,49.29188,-12.31732,AI,1--4----,Point (49.29187999999999903 -12.31732000000000049)
EU,Latvia,LVA,LVRIX,Riga,Riga,944970.0,24.10589,56.946000000000005,AI,1--45---,Point (24.10588999999999871 56.94599999999999795)
AF,Libya,LBY,LYBEN,Bingazi (Benghazi),Bingazi_benghazi,296981.0,20.06859,32.11486,AI,1--45---,Point (20.06859000000000037 32.11486000000000018)
AF,Libya,LBY,LYMRA,Misurata,Misurata,757750.0000100001,15.09254,32.37535,AI,1--4----,Point (15.09253999999999962 32.37534999999999741)
AF,Libya,LBY,LYTIP,Tripoli,Tripoli,281045.0,13.18733,32.88743,AI,1--4----,Point (13.18732999999999933 32.88743000000000194)
OC,Kiribati,KIR,KITRW,Tarawa,Tarawa,136326.0,172.97696000000002,1.3278,AI,1--4----,Point (172.97695999999999117 1.32780000000000009)
AF,Comoros,COM,KMYVA,Moroni,Moroni,131275.33335,43.25506,-11.702160000000001,AI,1--45---,Point (43.25506000000000029 -11.70215999999999923)
AS,Lebanon,LBN,LBKYE,Tripoli,Tripoli,2038156.25,35.84415,34.43352,AI,1--4----,Point (35.84414999999999907 34.43352000000000146)
EU,Lithuania,LTU,LTKLJ,Klaipeda,Klaipeda,1242325.5,21.139120000000002,55.7068,AI,1--4----,Point (21.13911999999999836 55.70680000000000121)
AS,Malaysia,MYS,MYPGU,Pasir Gudang Johor,Pasir_gudang_johor,3893274.66675,103.87799999999999,1.4726,QQ,1-------,Point (103.87800000000000011 1.47259999999999991)
AS,Malaysia,MYS,MYSDK,Sandakan Sabah,Sandakan_sabah,18720.0,118.1179,5.8402,AI,1--4----,Point (118.11790000000000589 5.84020000000000028)
AS,Malaysia,MYS,MYSBW,Sibu Sarawak,Sibu_sarawak,2250.0,111.81667,2.3,AI,1--4----,Point (111.81667000000000201 2.29999999999999982)
AS,Malaysia,MYS,MYTWU,Tawau Sabah,Tawau_sabah,241236.6667,117.89115,4.24482,AI,1--4----,Point (117.89114999999999611 4.24481999999999982)
AS,Malaysia,MYS,MYBKI,Kota Kinabalu Sabah,Kota_kinabalu_sabah,710049.1667,116.0724,5.9749,AI,1-345---,Point (116.0724000000000018 5.97489999999999988)
AS,Malaysia,MYS,MYKCH,Kuching Sarawak,Kuching_sarawak,276603.6,110.33333,1.55,AI,1--45---,Point (110.33333000000000368 1.55000000000000004)
AS,Malaysia,MYS,MYLBU,Labuan Sabah,Labuan_sabah,68835.0,115.26924,5.28883,AI,1--4----,Point (115.26923999999999637 5.28882999999999992)
AS,Malaysia,MYS,MYMKZ,Malacca,Malacca,2862.0,102.2405,2.1959999999999997,AI,1--4----,Point (102.24049999999999727 2.19600000000000017)
AF,Mauritania,MRT,MRNKC,Nouakchott,Nouakchott,334524.0,-15.9785,18.085810000000002,AI,1--45---,Point (-15.97850000000000037 18.08580999999999861)
,Montserrat,MSR,MSPLY,Plymouth,Plymouth,230958.0,-62.21292,16.70555,RQ,1---5---,Point (-62.21291999999999689 16.70554999999999879)
AF,Mauritius,MUS,MUPLU,Port Louis,Port_louis,7415942.3855,57.49889,-20.161939999999998,QQ,1--4----,Point (57.49889000000000294 -20.16194000000000131)
AS,Malaysia,MYS,MYBTU,Bintulu Sarawak,Bintulu_sarawak,670234.5,113.03333,3.16667,AI,1-------,Point (113.03333000000000652 3.16666999999999987)
AS,Myanmar,MMR,MMRGN,Yangon,Yangon,937558.00005,96.15611,16.80528,AI,1--45---,Point (96.15610999999999819 16.80527999999999977)
AS,Myanmar,MMR,MMRGN,Yangon,Yangon,937558.00005,96.15611,16.80528,AI,1--45---,Point (96.15610999999999819 16.80527999999999977)
,Martinique,MTQ,MQFDF,Fort-de-France,Fort_de_france,1924423.5832689998,-61.074180000000005,14.60365,AI,1-345---,Point (-61.07417999999999836 14.60365000000000002)
AF,Mauritania,MRT,MRNDB,Nouadhibou,Nouadhibou,197029.5,-17.038420000000002,20.941879999999998,AI,1--4----,Point (-17.03841999999999857 20.94188000000000116)
EU,Turkey,TUR,TRALI,Aliaga,Aliaga,8740753.93289,26.97203,38.79975,RL,1-------,Point (26.97203000000000017 38.79975000000000307)
EU,Turkey,TUR,TRDRC,Derince,Derince,303927.0,29.81472,40.75694,QQ,1-3-----,Point (29.81472000000000122 40.75694000000000017)
EU,Turkey,TUR,TRHAY,Haydarpasa,Haydarpasa,220592.66669,29.024590000000003,40.99596,QQ,1-3-----,Point (29.02458999999999989 40.99595999999999663)
EU,Turkey,TUR,TRYAR,Yarimca,Yarimca,895813.99998,31.14194,39.08361,QQ,1-------,Point (31.14194000000000173 39.08361000000000018)
AF,Tunisia,TUN,TNBIZ,Bizerte,Bizerte,106117.5,9.87391,37.27442,QQ,1234----,Point (9.87391000000000041 37.27441999999999922)
AF,Tunisia,TUN,TNSFA,Sfax,Sfax,72212.33334,10.76028,34.740559999999995,AI,1234----,Point (10.76027999999999984 34.74056000000000211)
AF,Tunisia,TUN,TNSUS,Sousse,Sousse,43545.0,10.636989999999999,35.825390000000006,QQ,1234----,Point (10.63699000000000083 35.82538999999999874)
AF,Tunisia,TUN,TNTUN,Tunis,Tunis,59748.0,10.16579,36.81897,AI,12345---,Point (10.16578999999999944 36.8189700000000002)
,El Salvador,SLV,SVAQJ,Acajutla,Acajutla,495947.4,-89.8275,13.59278,AI,1-3-----,Point (-89.82750000000000057 13.59277999999999942)
,El Salvador,SLV,SVSAL,San Salvador,San_salvador,388752.0,-89.18718,13.68935,AI,1--45---,Point (-89.1871799999999979 13.68934999999999924)
AF,Togo,TGO,TGLFW,Lome,Lome,6445382.41344,1.22154,6.1287400000000005,AI,1--45---,Point (1.22154000000000007 6.12873999999999963)
AS,Thailand,THA,THSRI,Sriracha,Sriracha,58522.5,100.93111,13.173720000000001,QQ,1-------,Point (100.93111000000000388 13.17371999999999943)
AF,Somalia,SOM,SOKMU,Kismayu,Kismayu,188773.0,42.545359999999995,-0.35817,AI,1--4----,Point (42.54536000000000229 -0.35816999999999999)
AF,Somalia,SOM,SOMGQ,Mogadishu,Mogadishu,437501.99998,45.34375,2.0371099999999998,AI,1--45---,Point (45.34375 2.0371100000000002)
SA,Suriname,SUR,SRPBM,Paramaribo,Paramaribo,538931.333322,-55.166819999999994,5.86638,AI,1--45---,Point (-55.1668200000000013 5.86638000000000037)
SA,Suriname,SUR,SRPBM,Paramaribo,Paramaribo,538931.333322,-55.166819999999994,5.86638,AI,1--45---,Point (-55.1668200000000013 5.86638000000000037)
,United States,USA,USGLC,Gloucester City,Gloucester_city,59686.5,-70.66313000000001,42.61405,RN,1-3-----,Point (-70.66312999999999533 42.61404999999999887)
,United States,USA,USIJX,Jacksonville,Jacksonville,5087986.30442,-81.65565,30.332179999999997,AI,---4----,Point (-81.65564999999999429 30.33218000000000103)
,United States,USA,USADQ,Kodiak,Kodiak,61671.99999,-152.40533,57.78852,AI,---4----,Point (-152.4053299999999922 57.78851999999999833)
,United States,USA,USLAX,Los Angeles,Los_angeles,12755714.04884,-118.24368,34.05223,AI,1--45---,Point (-118.24367999999999768 34.05223000000000155)
,United States,USA,USDUT,Dutch Harbor,Dutch_harbor,378795.99999,-166.5422,53.8898,AI,1--4----,Point (-166.54220000000000823 53.88980000000000103)
,United States,USA,USPAE,Everett,Everett,152295.00003,-122.20208000000001,47.97898,AI,1-34----,Point (-122.20207999999999515 47.97897999999999996)
,United States,USA,USFEP,Freeport,Freeport,751787.11119,-70.10311,43.85702,AI,---4----,Point (-70.10311000000000092 43.85701999999999856)
,United States,USA,USGLS,Galveston,Galveston,47326.5,-94.7977,29.30135,AI,1--4----,Point (-94.79770000000000607 29.30134999999999934)
,United States,USA,USCAT,Camden,Camden,176498.0,-75.11962,39.92595,RQ,--3-----,Point (-75.11961999999999762 39.92595000000000027)
,United States,USA,USCHS,Charleston,Charleston,23192728.696870003,-79.9244266753,32.7850173426,AI,1--4----,Point (-79.92442667527311073 32.78501734256295208)
,United States,USA,USCAV,Cleveland,Cleveland,1974.0,-81.69541,41.4995,RQ,--3-----,Point (-81.69540999999999542 41.49949999999999761)
,United States,USA,USCRP,Corpus Christi,Corpus_christi,53712.0,-97.39638000000001,27.80058,AI,1--4----,Point (-97.39637999999999352 27.80058000000000007)
,United States,USA,USANC,Anchorage,Anchorage,61671.99999,-149.90028,61.218059999999994,AI,1--45---,Point (-149.9002800000000093 61.21806000000000125)
,United States,USA,USBPT,Beaumont,Beaumont,34041.0,-94.10185,30.08605,AI,1--4----,Point (-94.10184999999999889 30.08605000000000018)
,United States,USA,USBOS,Boston,Boston,1565893.3336,-71.05977,42.35843,AI,1--45---,Point (-71.05977000000000032 42.35842999999999847)
,United States,USA,USBCK,Brunswick,Brunswick,48681.0,-74.45182,40.48622,RL,--3-----,Point (-74.45181999999999789 40.48622000000000298)
EU,Poland,POL,PLGDN,Gdansk,Gdansk,6373121.049906,18.64912,54.35227,AI,1--4----,Point (18.64911999999999992 54.3522699999999972)
EU,Poland,POL,PLSZZ,Szczecin,Szczecin,101530.0,14.553020000000002,53.428940000000004,AI,1--45---,Point (14.55302000000000007 53.42893999999999721)
OC,Palau,PLW,PWROR,Koror,Koror,30420.0,134.47326,7.33978,AI,1--4----,Point (134.47326000000001045 7.33978000000000019)
EU,Russian Federation,RUS,RUARH,Arkhangelsk,Arkhangelsk,390.0,40.5433,64.5401,AI,1--4----,Point (40.54330000000000211 64.54009999999999536)
AS,Philippines,PHL,PHTAG,Tagbilaran Bohol,Tagbilaran_bohol,4320.0,123.85219,9.655560000000001,AI,1--4----,Point (123.85218999999999312 9.65555999999999948)
AS,Philippines,PHL,PHZAM,Zamboanga,Zamboanga,67509.0,122.07388999999999,6.91028,AI,1--4----,Point (122.07389000000000578 6.9102800000000002)
AS,Pakistan,PAK,PKGWD,Gwadar,Gwadar,145535.0,62.32541,25.12163,AI,1-34----,Point (62.32540999999999798 25.12162999999999968)
